region_id,region_province ,region_city,region_district,longitude,latitude
1100000000,서울특별시,,,126.9800083,37.56356944
1111000000,서울특별시,종로구,,126.9816417,37.57037778
1111051500,서울특별시,종로구,청운효자동,126.9706519,37.5841367
1111053000,서울특별시,종로구,사직동,126.9709556,37.57326944
1111054000,서울특별시,종로구,삼청동,126.9839778,37.582425
1111055000,서울특별시,종로구,부암동,126.9664444,37.58985556
1111056000,서울특별시,종로구,평창동,126.9688778,37.60252222
1111057000,서울특별시,종로구,무악동,126.9612083,37.57153889
1111058000,서울특별시,종로구,교남동,126.9641,37.569075
1111060000,서울특별시,종로구,가회동,126.9869111,37.57725278
1111061500,서울특별시,종로구,종로1.2.3.4가동,126.9910667,37.56788611
1111063000,서울특별시,종로구,종로5.6가동,127.0071556,37.56921111
1111064000,서울특별시,종로구,이화동,127.0063972,37.57421389
1111065000,서울특별시,종로구,혜화동,127.0026222,37.58398889
1111067000,서울특별시,종로구,창신제1동,127.0184639,37.56793611
1111068000,서울특별시,종로구,창신제2동,127.0129639,37.57164444
1111069000,서울특별시,종로구,창신제3동,127.0171639,37.57504722
1111070000,서울특별시,종로구,숭인제1동,127.0176639,37.57502778
1111071000,서울특별시,종로구,숭인제2동,127.0220556,37.57203611
1114000000,서울특별시,중구,,126.9996417,37.56100278
1114052000,서울특별시,중구,소공동,126.9791083,37.55963056
1114054000,서울특별시,중구,회현동,126.9814444,37.55448333
1114055000,서울특별시,중구,명동,126.9878889,37.55723611
1114057000,서울특별시,중구,필동,126.9977111,37.55735278
1114058000,서울특별시,중구,장충동,127.0099333,37.55911667
1114059000,서울특별시,중구,광희동,127.0071639,37.56173056
1114060500,서울특별시,중구,을지로동,126.9934306,37.5639
1114061500,서울특별시,중구,신당동,127.0166333,37.55931111
1114062500,서울특별시,중구,다산동,127.0103083,37.55161667
1114063500,서울특별시,중구,약수동,127.0110861,37.54965833
1114064500,서울특별시,중구,청구동,127.0167889,37.55425833
1114065000,서울특별시,중구,신당제5동,127.0239667,37.56233056
1114066500,서울특별시,중구,동화동,127.0215417,37.55722778
1114067000,서울특별시,중구,황학동,127.0234972,37.56466389
1114068000,서울특별시,중구,중림동,126.9666,37.55203333
1117000000,서울특별시,용산구,,126.9675222,37.53609444
1117051000,서울특별시,용산구,후암동,126.9802667,37.54588056
1117052000,서울특별시,용산구,용산2가동,126.9875639,37.54311944
1117053000,서울특별시,용산구,남영동,126.9769667,37.54283333
1117055500,서울특별시,용산구,청파동,126.9720417,37.54255556
1117056000,서울특별시,용산구,원효로제1동,126.9683417,37.53586944
1117057000,서울특별시,용산구,원효로제2동,126.9535778,37.53159167
1117058000,서울특별시,용산구,효창동,126.9633972,37.53895278
1117059000,서울특별시,용산구,용문동,126.9596639,37.53625
1117062500,서울특별시,용산구,한강로동,126.9715333,37.52624167
1117063000,서울특별시,용산구,이촌제1동,126.9753556,37.51840278
1117064000,서울특별시,용산구,이촌제2동,126.9563306,37.52403056
1117065000,서울특별시,용산구,이태원제1동,126.9970417,37.52949167
1117066000,서울특별시,용산구,이태원제2동,126.9918444,37.53797222
1117068500,서울특별시,용산구,한남동,127.0026444,37.53188611
1117069000,서울특별시,용산구,서빙고동,126.9967778,37.51760556
1117070000,서울특별시,용산구,보광동,127.0023333,37.52346389
1120000000,서울특별시,성동구,,127.039,37.56061111
1120052000,서울특별시,성동구,왕십리제2동,127.0327111,37.55833611
1120053500,서울특별시,성동구,왕십리도선동,127.0255591,37.5677544
1120054000,서울특별시,성동구,마장동,127.0475639,37.56343333
1120055000,서울특별시,성동구,사근동,127.0479556,37.55840556
1120056000,서울특별시,성동구,행당제1동,127.0380778,37.55535278
1120057000,서울특별시,성동구,행당제2동,127.0315333,37.555575
1120058000,서울특별시,성동구,응봉동,127.0354972,37.55034722
1120059000,서울특별시,성동구,금호1가동,127.0239444,37.55206944
1120061500,서울특별시,성동구,금호2.3가동,127.020859,37.553188
1120062000,서울특별시,성동구,금호4가동,127.024475,37.54447222
1120064500,서울특별시,성동구,옥수동,127.013463,37.543717
1120065000,서울특별시,성동구,성수1가제1동,127.0519861,37.53895833
1120066000,서울특별시,성동구,성수1가제2동,127.0463639,37.54352778
1120067000,서울특별시,성동구,성수2가제1동,127.0562,37.53670278
1120069000,서울특별시,성동구,성수2가제3동,127.0573333,37.54543056
1120072000,서울특별시,성동구,송정동,127.0717083,37.55172778
1120079000,서울특별시,성동구,용답동,127.0574333,37.56136667
1121500000,서울특별시,광진구,,127.0845333,37.53573889
1121571000,서울특별시,광진구,화양동,127.0734639,37.54378611
1121573000,서울특별시,광진구,군자동,127.0779972,37.55235278
1121574000,서울특별시,광진구,중곡제1동,127.0821639,37.55784167
1121575000,서울특별시,광진구,중곡제2동,127.0835444,37.557475
1121576000,서울특별시,광진구,중곡제3동,127.0822528,37.56591667
1121577000,서울특별시,광진구,중곡제4동,127.0893528,37.56251111
1121578000,서울특별시,광진구,능동,127.0826444,37.55102778
1121581000,서울특별시,광진구,광장동,127.1053083,37.54421389
1121582000,서울특별시,광진구,자양제1동,127.0844194,37.53168611
1121583000,서울특별시,광진구,자양제2동,127.0866,37.526
1121584000,서울특별시,광진구,자양제3동,127.0750306,37.53103333
1121584700,서울특별시,광진구,자양제4동,127.0672528,37.53748611
1121585000,서울특별시,광진구,구의제1동,127.0878667,37.539675
1121586000,서울특별시,광진구,구의제2동,127.0921083,37.54443889
1121587000,서울특별시,광진구,구의제3동,127.0996889,37.53613889
1123000000,서울특별시,동대문구,,127.0421417,37.571625
1123053600,서울특별시,동대문구,용신동,127.0372169,37.5758185
1123054500,서울특별시,동대문구,제기동,127.0377843,37.5830767
1123056000,서울특별시,동대문구,전농제1동,127.0498667,37.57521111
1123057000,서울특별시,동대문구,전농제2동,127.0538639,37.58170278
1123060000,서울특별시,동대문구,답십리제1동,127.0542222,37.569275
1123061000,서울특별시,동대문구,답십리제2동,127.061575,37.56915278
1123065000,서울특별시,동대문구,장안제1동,127.0684778,37.56498611
1123066000,서울특별시,동대문구,장안제2동,127.0753083,37.56840833
1123070500,서울특별시,동대문구,청량리동,127.0472767,37.5862586
1123071000,서울특별시,동대문구,회기동,127.0574889,37.58800833
1123072000,서울특별시,동대문구,휘경제1동,127.0678194,37.59015833
1123073000,서울특별시,동대문구,휘경제2동,127.0696556,37.58849444
1123074000,서울특별시,동대문구,이문제1동,127.0676306,37.595
1123075000,서울특별시,동대문구,이문제2동,127.0586194,37.59173056
1126000000,서울특별시,중랑구,,127.0947778,37.60380556
1126052000,서울특별시,중랑구,면목제2동,127.0811333,37.58698333
1126054000,서울특별시,중랑구,면목제4동,127.0876222,37.57181667
1126055000,서울특별시,중랑구,면목제5동,127.0817222,37.58304722
1126056500,서울특별시,중랑구,면목본동,127.0896778,37.58456111
1126057000,서울특별시,중랑구,면목제7동,127.0890861,37.5762
1126057500,서울특별시,중랑구,면목제3.8동,127.0902194,37.58023611
1126058000,서울특별시,중랑구,상봉제1동,127.0892889,37.59702778
1126059000,서울특별시,중랑구,상봉제2동,127.0853889,37.58961111
1126060000,서울특별시,중랑구,중화제1동,127.0827778,37.59838611
1126061000,서울특별시,중랑구,중화제2동,127.0770222,37.59221667
1126062000,서울특별시,중랑구,묵제1동,127.0805861,37.60962222
1126063000,서울특별시,중랑구,묵제2동,127.0781444,37.60679722
1126065500,서울특별시,중랑구,망우본동,127.1084639,37.59869167
1126066000,서울특별시,중랑구,망우제3동,127.1002667,37.58957778
1126068000,서울특별시,중랑구,신내1동,127.1015528,37.60308333
1126069000,서울특별시,중랑구,신내2동,127.096275,37.60343056
1129000000,서울특별시,성북구,,127.0203333,37.58638333
1129052500,서울특별시,성북구,성북동,127.0060861,37.58744167
1129055500,서울특별시,성북구,삼선동,127.0095556,37.58284722
1129057500,서울특별시,성북구,동선동,127.0225083,37.59127778
1129058000,서울특별시,성북구,돈암제1동,127.0282889,37.60050833
1129059000,서울특별시,성북구,돈암제2동,127.0127111,37.59525556
1129060000,서울특별시,성북구,안암동,127.0234778,37.58305833
1129061000,서울특별시,성북구,보문동,127.0249,37.57758889
1129062000,서울특별시,성북구,정릉제1동,127.0187417,37.59864167
1129063000,서울특별시,성북구,정릉제2동,127.0132417,37.60166667
1129064000,서울특별시,성북구,정릉제3동,127.0062889,37.60616667
1129065000,서울특별시,성북구,정릉제4동,127.0082083,37.61078611
1129066000,서울특별시,성북구,길음제1동,127.0241667,37.60178333
1129068500,서울특별시,성북구,길음제2동,127.0294,37.60385
1129070500,서울특별시,성북구,종암동,127.0335528,37.59733056
1129071500,서울특별시,성북구,월곡제1동,127.0361417,37.60420278
1129072500,서울특별시,성북구,월곡제2동,127.0416889,37.59994167
1129076000,서울특별시,성북구,장위제1동,127.0458556,37.61119167
1129077000,서울특별시,성북구,장위제2동,127.0567083,37.60966389
1129078000,서울특별시,성북구,장위제3동,127.0587222,37.61377222
1129081000,서울특별시,성북구,석관동,127.0635194,37.61016111
1130500000,서울특별시,강북구,,127.0277194,37.63695556
1130553400,서울특별시,강북구,삼양동,127.0205111,37.62448333
1130553500,서울특별시,강북구,미아동,127.0290194,37.62413611
1130554500,서울특별시,강북구,송중동,127.0358333,37.61336111
1130555500,서울특별시,강북구,송천동,127.0259556,37.61551667
1130557500,서울특별시,강북구,삼각산동,127.0198528,37.61443056
1130559500,서울특별시,강북구,번1동,127.0310194,37.63515833
1130560300,서울특별시,강북구,번2동,127.0409444,37.62938611
1130560800,서울특별시,강북구,번3동,127.0486889,37.62309444
1130561500,서울특별시,강북구,수유1동,127.0192972,37.63073333
1130562500,서울특별시,강북구,수유2동,127.0220417,37.64188056
1130563500,서울특별시,강북구,수유3동,127.0253194,37.63597222
1130564500,서울특별시,강북구,우이동,127.0140667,37.64519444
1130566000,서울특별시,강북구,인수동,127.0127667,37.63873333
1132000000,서울특별시,도봉구,,127.0495222,37.66583333
1132051100,서울특별시,도봉구,창제1동,127.0459972,37.64564722
1132051200,서울특별시,도봉구,창제2동,127.0377667,37.63872778
1132051300,서울특별시,도봉구,창제3동,127.0450083,37.63526944
1132051400,서울특별시,도봉구,창제4동,127.0536667,37.64939722
1132051500,서울특별시,도봉구,창제5동,127.0412972,37.64921389
1132052100,서울특별시,도봉구,도봉제1동,127.0455111,37.67581944
1132052200,서울특별시,도봉구,도봉제2동,127.0487083,37.667
1132066000,서울특별시,도봉구,쌍문제1동,127.0281778,37.64524722
1132067000,서울특별시,도봉구,쌍문제2동,127.0409111,37.65508056
1132068000,서울특별시,도봉구,쌍문제3동,127.0300889,37.64619444
1132068100,서울특별시,도봉구,쌍문제4동,127.0305444,37.653625
1132069000,서울특별시,도봉구,방학제1동,127.0427667,37.66143333
1132070000,서울특별시,도봉구,방학제2동,127.0372222,37.66543611
1132071000,서울특별시,도봉구,방학제3동,127.0300778,37.65622778
1135000000,서울특별시,노원구,,127.0583889,37.65146111
1135056000,서울특별시,노원구,월계1동,127.0650889,37.61731944
1135057000,서울특별시,노원구,월계2동,127.0529972,37.62976111
1135058000,서울특별시,노원구,월계3동,127.0713306,37.61820556
1135059500,서울특별시,노원구,공릉1동,127.0737518,37.62472748
1135060000,서울특별시,노원구,공릉2동,127.0854417,37.61856944
1135061100,서울특별시,노원구,하계1동,127.0747306,37.63778333
1135061200,서울특별시,노원구,하계2동,127.0701111,37.62925
1135061900,서울특별시,노원구,중계본동,127.0824556,37.64507222
1135062100,서울특별시,노원구,중계1동,127.0796639,37.64978611
1135062400,서울특별시,노원구,중계4동,127.0800889,37.65596667
1135062500,서울특별시,노원구,중계2.3동,127.0687126,37.6421829
1135063000,서울특별시,노원구,상계1동,127.0572111,37.67710278
1135064000,서울특별시,노원구,상계2동,127.0707083,37.655975
1135066500,서울특별시,노원구,상계3.4동,127.0774667,37.661
1135067000,서울특별시,노원구,상계5동,127.0714861,37.66021944
1135069500,서울특별시,노원구,상계6.7동,127.0690667,37.65208889
1135070000,서울특별시,노원구,상계8동,127.0536667,37.66394444
1135071000,서울특별시,노원구,상계9동,127.0659556,37.66171111
1135072000,서울특별시,노원구,상계10동,127.0623667,37.65843333
1138000000,서울특별시,은평구,,126.9312417,37.59996944
1138051000,서울특별시,은평구,녹번동,126.9368444,37.59996111
1138052000,서울특별시,은평구,불광제1동,126.9341889,37.60753611
1138053000,서울특별시,은평구,불광제2동,126.9298194,37.61879444
1138055100,서울특별시,은평구,갈현제1동,126.9187889,37.62089722
1138055200,서울특별시,은평구,갈현제2동,126.9178889,37.61576667
1138056000,서울특별시,은평구,구산동,126.9125,37.60901944
1138057000,서울특별시,은평구,대조동,126.9228889,37.61133889
1138058000,서울특별시,은평구,응암제1동,126.9288639,37.59791111
1138059000,서울특별시,은평구,응암제2동,126.9251306,37.59181667
1138060000,서울특별시,은평구,응암제3동,126.9178417,37.58938611
1138062500,서울특별시,은평구,역촌동,126.9172778,37.60161944
1138063100,서울특별시,은평구,신사제1동,126.9143861,37.59521944
1138063200,서울특별시,은평구,신사제2동,126.9148333,37.58933333
1138064000,서울특별시,은평구,증산동,126.9092222,37.58153056
1138065000,서울특별시,은평구,수색동,126.8996417,37.58135833
1138069000,서울특별시,은평구,진관동,126.9211111,37.6356
1141000000,서울특별시,서대문구,,126.9388972,37.57636667
1141052000,서울특별시,서대문구,천연동,126.961175,37.56830278
1141055500,서울특별시,서대문구,북아현동,126.9589111,37.55686944
1141056500,서울특별시,서대문구,충현동,126.9568444,37.56206111
1141058500,서울특별시,서대문구,신촌동,126.9455861,37.55673889
1141061500,서울특별시,서대문구,연희동,126.9373528,37.57112222
1141062000,서울특별시,서대문구,홍제제1동,126.9469861,37.5849
1141064000,서울특별시,서대문구,홍제제3동,126.9511667,37.59244444
1141065500,서울특별시,서대문구,홍제제2동,126.9514667,37.58333889
1141066000,서울특별시,서대문구,홍은제1동,126.9459556,37.59043056
1141068500,서울특별시,서대문구,홍은제2동,126.9384861,37.58015833
1141069000,서울특별시,서대문구,남가좌제1동,126.9155778,37.57119444
1141070000,서울특별시,서대문구,남가좌제2동,126.9259111,37.57562778
1141071000,서울특별시,서대문구,북가좌제1동,126.9089778,37.57671111
1141072000,서울특별시,서대문구,북가좌제2동,126.9132194,37.57860278
1144000000,서울특별시,마포구,,126.9105306,37.56070556
1144055500,서울특별시,마포구,아현동,126.9542222,37.54434444
1144056500,서울특별시,마포구,공덕동,126.9620889,37.54744167
1144058500,서울특별시,마포구,도화동,126.9521306,37.5349
1144059000,서울특별시,마포구,용강동,126.9437333,37.53924722
1144060000,서울특별시,마포구,대흥동,126.9448111,37.55305
1144061000,서울특별시,마포구,염리동,126.9477194,37.54438611
1144063000,서울특별시,마포구,신수동,126.9366417,37.54406667
1144065500,서울특별시,마포구,서강동,126.9341556,37.54444722
1144066000,서울특별시,마포구,서교동,126.922975,37.54965556
1144068000,서울특별시,마포구,합정동,126.9077528,37.54672222
1144069000,서울특별시,마포구,망원제1동,126.9077667,37.55243333
1144070000,서울특별시,마포구,망원제2동,126.9043111,37.55756389
1144071000,서울특별시,마포구,연남동,126.9240667,37.56169444
1144072000,서울특별시,마포구,성산제1동,126.9100222,37.56058333
1144073000,서울특별시,마포구,성산제2동,126.9111528,37.56593056
1144074000,서울특별시,마포구,상암동,126.8968111,37.57551389
1147000000,서울특별시,양천구,,126.8687083,37.51423056
1147051000,서울특별시,양천구,목1동,126.8732333,37.52753889
1147052000,서울특별시,양천구,목2동,126.8738083,37.54335278
1147053000,서울특별시,양천구,목3동,126.8666,37.54209722
1147054000,서울특별시,양천구,목4동,126.8704972,37.52953333
1147055000,서울특별시,양천구,목5동,126.8807528,37.53241667
1147056000,서울특별시,양천구,신월1동,126.8336,37.53000556
1147057000,서울특별시,양천구,신월2동,126.8465861,37.52217222
1147058000,서울특별시,양천구,신월3동,126.831175,37.53084722
1147059000,서울특별시,양천구,신월4동,126.8421556,37.52190556
1147060000,서울특별시,양천구,신월5동,126.8294444,37.53688889
1147061000,서울특별시,양천구,신월6동,126.8457667,37.51330278
1147061100,서울특별시,양천구,신월7동,126.8367639,37.51909167
1147062000,서울특별시,양천구,신정1동,126.8563972,37.51573056
1147063000,서울특별시,양천구,신정2동,126.8726972,37.51640833
1147064000,서울특별시,양천구,신정3동,126.8568861,37.51233611
1147065000,서울특별시,양천구,신정4동,126.8608,37.52063611
1147067000,서울특별시,양천구,신정6동,126.8664861,37.51424722
1147068000,서울특별시,양천구,신정7동,126.8617556,37.5116
1150000000,서울특별시,강서구,,126.851675,37.54815556
1150051000,서울특별시,강서구,염창동,126.8730444,37.55104444
1150052000,서울특별시,강서구,등촌제1동,126.8609972,37.55306667
1150053000,서울특별시,강서구,등촌제2동,126.8645972,37.53985278
1150053500,서울특별시,강서구,등촌제3동,126.8500083,37.55609444
1150054000,서울특별시,강서구,화곡제1동,126.8437417,37.52774444
1150055000,서울특별시,강서구,화곡제2동,126.8567444,37.52878889
1150056000,서울특별시,강서구,화곡제3동,126.8404639,37.53994167
1150057000,서울특별시,강서구,화곡제4동,126.8652333,37.53013333
1150059000,서울특별시,강서구,화곡본동,126.8497528,37.54124444
1150059100,서울특별시,강서구,화곡제6동,126.8522444,37.54899444
1150059300,서울특별시,강서구,화곡제8동,126.8504222,37.52989167
1150060300,서울특별시,강서구,가양제1동,126.8426639,37.56647778
1150060400,서울특별시,강서구,가양제2동,126.8533639,37.56460556
1150060500,서울특별시,강서구,가양제3동,126.8626861,37.558275
1150061100,서울특별시,강서구,발산제1동,126.8352444,37.55026944
1150061500,서울특별시,강서구,우장산동,126.8418849,37.5482468
1150062000,서울특별시,강서구,공항동,126.8121639,37.55610556
1150063000,서울특별시,강서구,방화제1동,126.8143111,37.56877222
1150064000,서울특별시,강서구,방화제2동,126.8088306,37.563875
1150064100,서울특별시,강서구,방화제3동,126.8160194,37.57594167
1153000000,서울특별시,구로구,,126.8895972,37.49265
1153051000,서울특별시,구로구,신도림동,126.8826528,37.50497778
1153052000,서울특별시,구로구,구로제1동,126.8778556,37.49020278
1153053000,서울특별시,구로구,구로제2동,126.8856667,37.48860278
1153054000,서울특별시,구로구,구로제3동,126.8956861,37.48305556
1153055000,서울특별시,구로구,구로제4동,126.8912222,37.48883056
1153056000,서울특별시,구로구,구로제5동,126.8913778,37.49727778
1153059500,서울특별시,구로구,가리봉동,126.8919861,37.47798056
1153072000,서울특별시,구로구,고척제1동,126.8648,37.49760833
1153073000,서울특별시,구로구,고척제2동,126.8604306,37.50377778
1153074000,서울특별시,구로구,개봉제1동,126.8492639,37.49938611
1153075000,서울특별시,구로구,개봉제2동,126.8586194,37.488025
1153076000,서울특별시,구로구,개봉제3동,126.8558889,37.48317222
1153077000,서울특별시,구로구,오류제1동,126.8470889,37.49424722
1153078000,서울특별시,구로구,오류제2동,126.8416083,37.48599167
1153079000,서울특별시,구로구,수궁동,126.8335667,37.49110556
1153080000,서울특별시,구로구,항동,126.8107155,37.482174
1154500000,서울특별시,금천구,,126.9041972,37.44910833
1154551000,서울특별시,금천구,가산동,126.8938083,37.474125
1154561000,서울특별시,금천구,독산제1동,126.8991,37.46745833
1154562000,서울특별시,금천구,독산제2동,126.9018444,37.46329444
1154563000,서울특별시,금천구,독산제3동,126.9099889,37.47378889
1154564000,서울특별시,금천구,독산제4동,126.9042222,37.46465556
1154567000,서울특별시,금천구,시흥제1동,126.8994194,37.45214722
1154568000,서울특별시,금천구,시흥제2동,126.9188306,37.44729167
1154569000,서울특별시,금천구,시흥제3동,126.907975,37.43751944
1154570000,서울특별시,금천구,시흥제4동,126.9082417,37.456175
1154571000,서울특별시,금천구,시흥제5동,126.9104083,37.44958611
1156000000,서울특별시,영등포구,,126.8983417,37.52361111
1156051500,서울특별시,영등포구,영등포본동,126.9093046,37.5146826
1156053500,서울특별시,영등포구,영등포동,126.910691,37.5203985
1156054000,서울특별시,영등포구,여의동,126.9367556,37.51488889
1156055000,서울특별시,영등포구,당산제1동,126.8995222,37.52215833
1156056000,서울특별시,영등포구,당산제2동,126.9042444,37.53193889
1156058500,서울특별시,영등포구,도림동,126.89595,37.509475
1156060500,서울특별시,영등포구,문래동,126.8995421,37.5170965
1156061000,서울특별시,영등포구,양평제1동,126.8902861,37.52084722
1156062000,서울특별시,영등포구,양평제2동,126.8980222,37.535
1156063000,서울특별시,영등포구,신길제1동,126.9234778,37.50817222
1156065000,서울특별시,영등포구,신길제3동,126.9099194,37.50462222
1156066000,서울특별시,영등포구,신길제4동,126.913375,37.50567222
1156067000,서울특별시,영등포구,신길제5동,126.9073444,37.49882222
1156068000,서울특별시,영등포구,신길제6동,126.9119444,37.49656389
1156069000,서울특별시,영등포구,신길제7동,126.9234778,37.50365556
1156070000,서울특별시,영등포구,대림제1동,126.9079639,37.49258889
1156071000,서울특별시,영등포구,대림제2동,126.9003556,37.489925
1156072000,서울특별시,영등포구,대림제3동,126.9002111,37.49548611
1159000000,서울특별시,동작구,,126.941575,37.50965556
1159051000,서울특별시,동작구,노량진제1동,126.9440861,37.50948056
1159052000,서울특별시,동작구,노량진제2동,126.9393861,37.50573333
1159053000,서울특별시,동작구,상도제1동,126.9530222,37.50405
1159054000,서울특별시,동작구,상도제2동,126.9444,37.50264167
1159055000,서울특별시,동작구,상도제3동,126.9333889,37.49636667
1159056000,서울특별시,동작구,상도제4동,126.939875,37.49777778
1159060500,서울특별시,동작구,흑석동,126.9626111,37.50673889
1159062000,서울특별시,동작구,사당제1동,126.9757333,37.47361111
1159063000,서울특별시,동작구,사당제2동,126.9795083,37.48561944
1159064000,서울특별시,동작구,사당제3동,126.9740861,37.483825
1159065000,서울특별시,동작구,사당제4동,126.9737222,37.47818611
1159065100,서울특별시,동작구,사당제5동,126.9691083,37.48279722
1159066000,서울특별시,동작구,대방동,126.9284444,37.50533056
1159067000,서울특별시,동작구,신대방제1동,126.9121083,37.48615
1159068000,서울특별시,동작구,신대방제2동,126.927975,37.49612222
1162000000,서울특별시,관악구,,126.9538444,37.47538611
1162052500,서울특별시,관악구,보라매동,126.9348861,37.48530556
1162054500,서울특별시,관악구,청림동,126.9606667,37.48903889
1162056500,서울특별시,관악구,성현동,126.9481357,37.4896244
1162057500,서울특별시,관악구,행운동,126.9590333,37.47788333
1162058500,서울특별시,관악구,낙성대동,126.9604889,37.4735
1162059500,서울특별시,관악구,청룡동,126.94155,37.479151
1162060500,서울특별시,관악구,은천동,126.9424278,37.4853086
1162061500,서울특별시,관악구,중앙동,126.9517556,37.48144167
1162062500,서울특별시,관악구,인헌동,126.967375,37.47230556
1162063000,서울특별시,관악구,남현동,126.9799556,37.47178889
1162064500,서울특별시,관악구,서원동,126.9313,37.4797346
1162065500,서울특별시,관악구,신원동,126.9294194,37.47877778
1162066500,서울특별시,관악구,서림동,126.9370556,37.47216389
1162068500,서울특별시,관악구,신사동,126.9180796,37.4854118
1162069500,서울특별시,관악구,신림동,126.927075,37.487426
1162071500,서울특별시,관악구,난향동,126.918842,37.461429
1162072500,서울특별시,관악구,조원동,126.9078649,37.4826299
1162073500,서울특별시,관악구,대학동,126.9369907,37.4706145
1162074500,서울특별시,관악구,삼성동,126.932963,37.470101
1162076500,서울특별시,관악구,미성동,126.9155534,37.4761761
1162077500,서울특별시,관악구,난곡동,126.9216507,37.4709634
1165000000,서울특별시,서초구,,127.0348111,37.48078611
1165051000,서울특별시,서초구,서초1동,127.0211111,37.486
1165052000,서울특별시,서초구,서초2동,127.0269111,37.48925
1165053000,서울특별시,서초구,서초3동,127.0145667,37.48078333
1165053100,서울특별시,서초구,서초4동,127.0242222,37.49985556
1165054000,서울특별시,서초구,잠원동,127.0160528,37.51208889
1165055000,서울특별시,서초구,반포본동,126.9881333,37.49765
1165056000,서울특별시,서초구,반포1동,127.0144667,37.50331944
1165057000,서울특별시,서초구,반포2동,126.996575,37.50178333
1165058000,서울특별시,서초구,반포3동,127.0077528,37.50917222
1165058100,서울특별시,서초구,반포4동,127.0024417,37.49475833
1165059000,서울특별시,서초구,방배본동,126.9908333,37.49144444
1165060000,서울특별시,서초구,방배1동,126.9966083,37.48055833
1165061000,서울특별시,서초구,방배2동,126.9876111,37.47696667
1165062000,서울특별시,서초구,방배3동,127.0011333,37.47753889
1165062100,서울특별시,서초구,방배4동,126.9933222,37.48681667
1165065100,서울특별시,서초구,양재1동,127.0381528,37.48163611
1165065200,서울특별시,서초구,양재2동,127.0431444,37.46778056
1165066000,서울특별시,서초구,내곡동,127.0534111,37.45914444
1168000000,서울특별시,강남구,,127.0495556,37.514575
1168051000,서울특별시,강남구,신사동,127.0250222,37.52133889
1168052100,서울특별시,강남구,논현1동,127.0305111,37.50878889
1168053100,서울특별시,강남구,논현2동,127.0392889,37.51443611
1168054500,서울특별시,강남구,압구정동,127.030713,37.530642
1168056500,서울특별시,강남구,청담동,127.0493,37.5251083
1168058000,서울특별시,강남구,삼성1동,127.0575306,37.50904167
1168059000,서울특별시,강남구,삼성2동,127.0480861,37.50838889
1168060000,서울특별시,강남구,대치1동,127.0638556,37.49050556
1168061000,서울특별시,강남구,대치2동,127.0690194,37.49711111
1168063000,서울특별시,강남구,대치4동,127.0598528,37.49696389
1168064000,서울특별시,강남구,역삼1동,127.0351444,37.49258333
1168065000,서울특별시,강남구,역삼2동,127.0488556,37.49324722
1168065500,서울특별시,강남구,도곡1동,127.0404972,37.48806667
1168065600,서울특별시,강남구,도곡2동,127.0454,37.47986389
1168066000,서울특별시,강남구,개포1동,127.0595556,37.47909722
1168067000,서울특별시,강남구,개포2동,127.0757417,37.485175
1168067500,서울특별시,강남구,개포3동,127.073673,37.49214392
1168069000,서울특별시,강남구,개포4동,127.0537333,37.47602778
1168070000,서울특별시,강남구,세곡동,127.1093639,37.46636667
1168072000,서울특별시,강남구,일원본동,127.0886,37.48053333
1168073000,서울특별시,강남구,일원1동,127.0901306,37.48905833
1168075000,서울특별시,강남구,수서동,127.107,37.48602778
1171000000,서울특별시,송파구,,127.1079306,37.51175556
1171051000,서울특별시,송파구,풍납1동,127.1242444,37.53524722
1171052000,서울특별시,송파구,풍납2동,127.1188639,37.52595
1171053100,서울특별시,송파구,거여1동,127.1454083,37.49410833
1171053200,서울특별시,송파구,거여2동,127.149,37.49068611
1171054000,서울특별시,송파구,마천1동,127.1520889,37.49322222
1171055000,서울특별시,송파구,마천2동,127.1506778,37.494075
1171056100,서울특별시,송파구,방이1동,127.1260111,37.50814722
1171056200,서울특별시,송파구,방이2동,127.1165333,37.51175556
1171056600,서울특별시,송파구,오륜동,127.1365,37.51258889
1171057000,서울특별시,송파구,오금동,127.1302444,37.50015
1171058000,서울특별시,송파구,송파1동,127.1118194,37.50313056
1171059000,서울특별시,송파구,송파2동,127.1189111,37.49943611
1171060000,서울특별시,송파구,석촌동,127.1057528,37.500775
1171061000,서울특별시,송파구,삼전동,127.0946417,37.49997778
1171062000,서울특별시,송파구,가락본동,127.1239111,37.49277222
1171063100,서울특별시,송파구,가락1동,127.1076861,37.49375
1171063200,서울특별시,송파구,가락2동,127.1286417,37.49584444
1171064100,서울특별시,송파구,문정1동,127.1262,37.48719167
1171064200,서울특별시,송파구,문정2동,127.1130639,37.48705278
1171064600,서울특별시,송파구,장지동,127.1345333,37.48413611
1171064700,서울특별시,송파구,위례동,127.1414918,37.4791657
1171065000,서울특별시,송파구,잠실본동,127.0864194,37.50335556
1171067000,서울특별시,송파구,잠실2동,127.089975,37.51191389
1171068000,서울특별시,송파구,잠실3동,127.0964111,37.50448889
1171069000,서울특별시,송파구,잠실4동,127.1100556,37.51644444
1171071000,서울특별시,송파구,잠실6동,127.1026528,37.51538333
1171072000,서울특별시,송파구,잠실7동,127.0791333,37.50586111
1174000000,서울특별시,강동구,,127.1258639,37.52736667
1174051500,서울특별시,강동구,강일동,127.1804,37.56671389
1174052500,서울특별시,강동구,상일제1동,127.1683,37.5506
1174052600,서울특별시,강동구,상일제2동,127.1759,37.55
1174053000,서울특별시,강동구,명일제1동,127.1480222,37.54696389
1174054000,서울특별시,강동구,명일제2동,127.1534444,37.54355278
1174055000,서울특별시,강동구,고덕제1동,127.1510194,37.55624444
1174056000,서울특별시,강동구,고덕제2동,127.1664861,37.55771389
1174057000,서울특별시,강동구,암사제1동,127.1347639,37.54871667
1174058000,서울특별시,강동구,암사제2동,127.1293528,37.54896111
1174059000,서울특별시,강동구,암사제3동,127.140375,37.55237222
1174060000,서울특별시,강동구,천호제1동,127.1388778,37.54230278
1174061000,서울특별시,강동구,천호제2동,127.1229083,37.53978611
1174062000,서울특별시,강동구,천호제3동,127.1319667,37.53697222
1174064000,서울특별시,강동구,성내제1동,127.1260306,37.52784722
1174065000,서울특별시,강동구,성내제2동,127.1315861,37.52960278
1174066000,서울특별시,강동구,성내제3동,127.1348861,37.52337222
1174068500,서울특별시,강동구,길동,127.1461684,37.5392169
1174069000,서울특별시,강동구,둔촌제1동,127.1388306,37.52075
1174070000,서울특별시,강동구,둔촌제2동,127.1440194,37.53055
2600000000,부산광역시,,,129.0769528,35.17701944
2611000000,부산광역시,중구,,129.0345083,35.10321667
2611051000,부산광역시,중구,중앙동,129.0375889,35.09818611
2611052000,부산광역시,중구,동광동,129.0368778,35.10193333
2611053000,부산광역시,중구,대청동,129.0333333,35.10114722
2611054500,부산광역시,중구,보수동,129.0276222,35.10070278
2611056000,부산광역시,중구,부평동,129.0287972,35.09729722
2611057000,부산광역시,중구,광복동,129.0327528,35.09685833
2611058000,부산광역시,중구,남포동,129.0340861,35.09430556
2611059000,부산광역시,중구,영주제1동,129.0372861,35.10804722
2611060000,부산광역시,중구,영주제2동,129.0340333,35.10850833
2614000000,부산광역시,서구,,129.0263778,35.09483611
2614051000,부산광역시,서구,동대신제1동,129.0225083,35.10653611
2614052000,부산광역시,서구,동대신제2동,129.0254306,35.10985278
2614053000,부산광역시,서구,동대신제3동,129.0195083,35.11133889
2614054000,부산광역시,서구,서대신제1동,129.016675,35.10801389
2614056000,부산광역시,서구,서대신제3동,129.0141889,35.11036667
2614057000,부산광역시,서구,서대신제4동,129.0148333,35.11607222
2614059000,부산광역시,서구,부민동,129.0207528,35.10068611
2614061500,부산광역시,서구,아미동,129.0176861,35.09708889
2614063000,부산광역시,서구,초장동,129.0225639,35.09287778
2614064000,부산광역시,서구,충무동,129.0238972,35.09493611
2614065000,부산광역시,서구,남부민제1동,129.0255639,35.08965833
2614066000,부산광역시,서구,남부민제2동,129.0218639,35.08155
2614068000,부산광역시,서구,암남동,129.0236,35.07690556
2617000000,부산광역시,동구,,129.059175,35.13589444
2617051000,부산광역시,동구,초량제1동,129.0391889,35.11087778
2617052000,부산광역시,동구,초량제2동,129.0408,35.11344722
2617053000,부산광역시,동구,초량제3동,129.0420667,35.11818611
2617055000,부산광역시,동구,초량제6동,129.0367444,35.12290833
2617056000,부산광역시,동구,수정제1동,129.0445333,35.122275
2617057000,부산광역시,동구,수정제2동,129.0472639,35.12525278
2617059000,부산광역시,동구,수정제4동,129.0429639,35.12399722
2617060000,부산광역시,동구,수정제5동,129.0446889,35.13073333
2617064500,부산광역시,동구,좌천동,129.0527917,35.13198611
2617065000,부산광역시,동구,범일제1동,129.0583083,35.13627222
2617066000,부산광역시,동구,범일제2동,129.0619861,35.13187222
2617068000,부산광역시,동구,범일제5동,129.0560194,35.12730556
2620000000,부산광역시,영도구,,129.0701861,35.08811667
2620053000,부산광역시,영도구,남항동,129.0398528,35.08678889
2620054000,부산광역시,영도구,영선제1동,129.0470333,35.08716111
2620055000,부산광역시,영도구,영선제2동,129.0436417,35.08385
2620058500,부산광역시,영도구,신선동,129.0474556,35.08024444
2620059000,부산광역시,영도구,봉래제1동,129.0466222,35.09039167
2620060500,부산광역시,영도구,봉래제2동,129.0483972,35.09110833
2620063000,부산광역시,영도구,청학제1동,129.0606861,35.09383333
2620064000,부산광역시,영도구,청학제2동,129.0680306,35.088825
2620065000,부산광역시,영도구,동삼제1동,129.0707083,35.07179444
2620066000,부산광역시,영도구,동삼제2동,129.0829222,35.06474167
2620067000,부산광역시,영도구,동삼제3동,129.0709222,35.08158056
2623000000,부산광역시,부산진구,,129.0553194,35.15995278
2623051000,부산광역시,부산진구,부전제1동,129.0609222,35.15725833
2623052000,부산광역시,부산진구,부전제2동,129.059075,35.14952222
2623054000,부산광역시,부산진구,연지동,129.0550083,35.16971389
2623055000,부산광역시,부산진구,초읍동,129.0498333,35.175625
2623056000,부산광역시,부산진구,양정제1동,129.0666556,35.17139722
2623057000,부산광역시,부산진구,양정제2동,129.0779889,35.16978056
2623060000,부산광역시,부산진구,전포제1동,129.0696222,35.15126944
2623061000,부산광역시,부산진구,전포제2동,129.0684444,35.15863056
2623064000,부산광역시,부산진구,부암제1동,129.0517778,35.16046111
2623066000,부산광역시,부산진구,부암제3동,129.0420556,35.16592222
2623067000,부산광역시,부산진구,당감제1동,129.0423667,35.1597
2623068000,부산광역시,부산진구,당감제2동,129.0502778,35.15488889
2623070000,부산광역시,부산진구,당감제4동,129.0387972,35.16491389
2623071000,부산광역시,부산진구,가야제1동,129.0440528,35.15191111
2623072000,부산광역시,부산진구,가야제2동,129.0312889,35.14668056
2623074000,부산광역시,부산진구,개금제1동,129.024175,35.14956667
2623075000,부산광역시,부산진구,개금제2동,129.0216889,35.14170556
2623076000,부산광역시,부산진구,개금제3동,129.0242222,35.15268611
2623077000,부산광역시,부산진구,범천제1동,129.0633,35.14385
2623078000,부산광역시,부산진구,범천제2동,129.0583972,35.14327778
2626000000,부산광역시,동래구,,129.0858556,35.20187222
2626051000,부산광역시,동래구,수민동,129.0933889,35.192975
2626052000,부산광역시,동래구,복산동,129.088375,35.20270833
2626054500,부산광역시,동래구,명륜동,129.081561,35.2124914
2626055000,부산광역시,동래구,온천제1동,129.0823861,35.21696667
2626056000,부산광역시,동래구,온천제2동,129.0752528,35.20488333
2626057000,부산광역시,동래구,온천제3동,129.0685528,35.20186667
2626058000,부산광역시,동래구,사직제1동,129.0643444,35.19593333
2626059000,부산광역시,동래구,사직제2동,129.0591667,35.197175
2626060000,부산광역시,동래구,사직제3동,129.0717222,35.19638889
2626074000,부산광역시,동래구,안락제1동,129.1009111,35.19404722
2626075000,부산광역시,동래구,안락제2동,129.1123111,35.19464444
2626076100,부산광역시,동래구,명장제1동,129.1065,35.20158056
2626076200,부산광역시,동래구,명장제2동,129.1046556,35.20486667
2629000000,부산광역시,남구,,129.0865,35.13340833
2629051000,부산광역시,남구,대연제1동,129.0957194,35.13146389
2629053000,부산광역시,남구,대연제3동,129.1025778,35.13163611
2629054000,부산광역시,남구,대연제4동,129.0936194,35.12671111
2629055000,부산광역시,남구,대연제5동,129.0924889,35.13536944
2629056000,부산광역시,남구,대연제6동,129.0858417,35.13186667
2629057000,부산광역시,남구,용호제1동,129.1112972,35.11771389
2629058000,부산광역시,남구,용호제2동,129.1156861,35.11175
2629059000,부산광역시,남구,용호제3동,129.1150639,35.11792222
2629060000,부산광역시,남구,용호제4동,129.1126639,35.11014444
2629061000,부산광역시,남구,용당동,129.0974556,35.11441111
2629062000,부산광역시,남구,감만제1동,129.0828889,35.11378889
2629063000,부산광역시,남구,감만제2동,129.0867778,35.11945833
2629064500,부산광역시,남구,우암동,129.0758507,35.12499999
2629068000,부산광역시,남구,문현제1동,129.0735778,35.13939444
2629069000,부산광역시,남구,문현제2동,129.0709972,35.14222222
2629070000,부산광역시,남구,문현제3동,129.0739194,35.13512222
2629071000,부산광역시,남구,문현제4동,129.0712,35.13303056
2632000000,부산광역시,북구,,128.992475,35.19418056
2632051000,부산광역시,북구,구포제1동,129.0034111,35.20336944
2632052000,부산광역시,북구,구포제2동,129.0002444,35.19963611
2632052100,부산광역시,북구,구포제3동,129.0110444,35.19175833
2632053000,부산광역시,북구,금곡동,129.0150889,35.24700556
2632054100,부산광역시,북구,화명제1동,129.0124667,35.22169444
2632054200,부산광역시,북구,화명제2동,129.0220222,35.240525
2632054300,부산광역시,북구,화명제3동,129.0123333,35.22877222
2632055000,부산광역시,북구,덕천제1동,129.0190194,35.20938889
2632056000,부산광역시,북구,덕천제2동,129.0102444,35.20926667
2632056100,부산광역시,북구,덕천제3동,129.0196972,35.20681944
2632057100,부산광역시,북구,만덕제1동,129.0385194,35.21036667
2632057200,부산광역시,북구,만덕제2동,129.0394667,35.20711944
2632057300,부산광역시,북구,만덕제3동,129.0313972,35.20830833
2635000000,부산광역시,해운대구,,129.1658083,35.16001944
2635051000,부산광역시,해운대구,우제1동,129.1602861,35.15981111
2635052000,부산광역시,해운대구,우제2동,129.1422111,35.16815556
2635052500,부산광역시,해운대구,우제3동,129.1424022,35.1592915
2635053000,부산광역시,해운대구,중제1동,129.1664778,35.15945833
2635054000,부산광역시,해운대구,중제2동,129.1821083,35.15879722
2635055100,부산광역시,해운대구,좌제1동,129.1765528,35.16782222
2635055200,부산광역시,해운대구,좌제2동,129.1849194,35.16606111
2635055300,부산광역시,해운대구,좌제3동,129.1689861,35.16926389
2635055400,부산광역시,해운대구,좌제4동,129.1784778,35.17486667
2635056000,부산광역시,해운대구,송정동,129.2058972,35.18056111
2635057000,부산광역시,해운대구,반여제1동,129.1211889,35.19805556
2635058000,부산광역시,해운대구,반여제2동,129.1323528,35.19283056
2635059000,부산광역시,해운대구,반여제3동,129.1357,35.19800556
2635059500,부산광역시,해운대구,반여제4동,129.1193444,35.20610278
2635061000,부산광역시,해운대구,반송제1동,129.1500083,35.22205278
2635062000,부산광역시,해운대구,반송제2동,129.1626972,35.22576389
2635065000,부산광역시,해운대구,재송제1동,129.1256444,35.18086389
2635066000,부산광역시,해운대구,재송제2동,129.1277194,35.18655
2638000000,부산광역시,사하구,,128.9770417,35.10142778
2638051000,부산광역시,사하구,괴정제1동,128.9916222,35.09650278
2638052000,부산광역시,사하구,괴정제2동,129.006275,35.10043056
2638053000,부산광역시,사하구,괴정제3동,129.0004222,35.09721111
2638054000,부산광역시,사하구,괴정제4동,128.9854,35.09601667
2638055000,부산광역시,사하구,당리동,128.9789306,35.09984444
2638056100,부산광역시,사하구,하단제1동,128.9665333,35.10083333
2638056200,부산광역시,사하구,하단제2동,128.9626861,35.11143333
2638057100,부산광역시,사하구,신평제1동,128.976575,35.08691389
2638057200,부산광역시,사하구,신평제2동,128.9616333,35.09153333
2638058000,부산광역시,사하구,장림제1동,128.9691417,35.07981944
2638059000,부산광역시,사하구,장림제2동,128.9748444,35.07472778
2638060100,부산광역시,사하구,다대제1동,128.9735778,35.05610278
2638060200,부산광역시,사하구,다대제2동,128.9844333,35.06032222
2638061000,부산광역시,사하구,구평동,128.9900417,35.07881944
2638062000,부산광역시,사하구,감천제1동,129.0069111,35.08490556
2638063000,부산광역시,사하구,감천제2동,129.0116,35.091525
2641000000,부산광역시,금정구,,129.0943194,35.24007778
2641051000,부산광역시,금정구,서제1동,129.1013972,35.21526111
2641052000,부산광역시,금정구,서제2동,129.1069333,35.20978056
2641053000,부산광역시,금정구,서제3동,129.1097306,35.212375
2641055500,부산광역시,금정구,금사회동동,129.113375,35.21723611
2641057000,부산광역시,금정구,부곡제1동,129.0944,35.22135
2641058000,부산광역시,금정구,부곡제2동,129.095,35.22672778
2641059000,부산광역시,금정구,부곡제3동,129.0961333,35.23740556
2641059100,부산광역시,금정구,부곡제4동,129.090875,35.21681389
2641060000,부산광역시,금정구,장전제1동,129.0872111,35.23466667
2641061000,부산광역시,금정구,장전제2동,129.0843778,35.22253056
2641063500,부산광역시,금정구,선두구동,129.1155972,35.29520833
2641066500,부산광역시,금정구,청룡노포동,129.0920556,35.27205
2641067000,부산광역시,금정구,남산동,129.0946222,35.26855556
2641068000,부산광역시,금정구,구서제1동,129.0892306,35.24199167
2641069000,부산광역시,금정구,구서제2동,129.0928889,35.25208333
2641070000,부산광역시,금정구,금성동,129.0583417,35.24725278
2644000000,부산광역시,강서구,,128.9829083,35.20916389
2644051000,부산광역시,강서구,대저1동,128.9828556,35.21139444
2644052000,부산광역시,강서구,대저2동,128.9587,35.17539444
2644053000,부산광역시,강서구,강동동,128.9375083,35.21146389
2644053500,부산광역시,강서구,명지1동,128.926502,35.108091
2644054500,부산광역시,강서구,명지2동,128.899758,35.084587
2644055000,부산광역시,강서구,가락동,128.904075,35.19331667
2644056000,부산광역시,강서구,녹산동,128.8608083,35.12346389
2644058000,부산광역시,강서구,가덕도동,128.8140333,35.05261667
2644059000,부산광역시,강서구,신호동,128.8791071,35.08544354
2647000000,부산광역시,연제구,,129.082075,35.17318611
2647061000,부산광역시,연제구,거제제1동,129.0830222,35.19171944
2647062000,부산광역시,연제구,거제제2동,129.0725417,35.18457222
2647063000,부산광역시,연제구,거제제3동,129.0753083,35.18103333
2647064000,부산광역시,연제구,거제제4동,129.0700222,35.17613056
2647065000,부산광역시,연제구,연산제1동,129.0938444,35.18587778
2647066000,부산광역시,연제구,연산제2동,129.081575,35.17683333
2647067000,부산광역시,연제구,연산제3동,129.0965111,35.17026944
2647068000,부산광역시,연제구,연산제4동,129.0871556,35.18321667
2647069000,부산광역시,연제구,연산제5동,129.0783556,35.18141944
2647070000,부산광역시,연제구,연산제6동,129.0879417,35.17577222
2647072000,부산광역시,연제구,연산제8동,129.1033333,35.18403333
2647073000,부산광역시,연제구,연산제9동,129.1071972,35.18554722
2650000000,부산광역시,수영구,,129.115375,35.14246667
2650066000,부산광역시,수영구,남천제1동,129.1125972,35.139575
2650067000,부산광역시,수영구,남천제2동,129.1169861,35.14075278
2650073000,부산광역시,수영구,수영동,129.1182889,35.16735833
2650074000,부산광역시,수영구,망미제1동,129.1032417,35.17135556
2650075000,부산광역시,수영구,망미제2동,129.1175417,35.17215278
2650076000,부산광역시,수영구,광안제1동,129.1147306,35.15986667
2650077000,부산광역시,수영구,광안제2동,129.1148667,35.15067778
2650078000,부산광역시,수영구,광안제3동,129.1158556,35.16482222
2650079000,부산광역시,수영구,광안제4동,129.1136667,35.15196667
2650080000,부산광역시,수영구,민락동,129.1276778,35.15416667
2653000000,부산광역시,사상구,,128.9933333,35.14946667
2653058000,부산광역시,사상구,삼락동,128.9799667,35.17389444
2653059100,부산광역시,사상구,모라제1동,128.9896889,35.18453611
2653059300,부산광역시,사상구,모라제3동,128.9983333,35.18155833
2653060000,부산광역시,사상구,덕포제1동,128.9855306,35.16728333
2653061000,부산광역시,사상구,덕포제2동,128.9851778,35.17138056
2653062000,부산광역시,사상구,괘법동,128.9894444,35.16067222
2653064500,부산광역시,사상구,감전동,128.9817083,35.15123333
2653065000,부산광역시,사상구,주례제1동,129.0001444,35.14861944
2653066000,부산광역시,사상구,주례제2동,129.0127333,35.14698889
2653066100,부산광역시,사상구,주례제3동,129.0037222,35.14428889
2653067000,부산광역시,사상구,학장동,128.9896778,35.14099167
2653068000,부산광역시,사상구,엄궁동,128.9744444,35.1256
2671000000,부산광역시,기장군,,129.224475,35.24135
2671025000,부산광역시,기장군,기장읍,129.2181778,35.23560278
2671025300,부산광역시,기장군,장안읍,129.2462889,35.31070278
2671025600,부산광역시,기장군,정관읍,129.1826778,35.322375
2671025900,부산광역시,기장군,일광읍,129.2322825,35.26393718
2671033000,부산광역시,기장군,철마면,129.1520222,35.27219722
2700000000,대구광역시,,,128.6035528,35.86854167
2711000000,대구광역시,중구,,128.6083972,35.86628611
2711051700,대구광역시,중구,동인동,128.609131,35.86790482
2711054500,대구광역시,중구,삼덕동,128.6111667,35.862575
2711056500,대구광역시,중구,성내1동,128.6003556,35.86625
2711057500,대구광역시,중구,성내2동,128.5926222,35.86534722
2711058500,대구광역시,중구,성내3동,128.5879417,35.86961111
2711059500,대구광역시,중구,대신동,128.5794444,35.86320278
2711064000,대구광역시,중구,남산1동,128.5926444,35.85639444
2711065000,대구광역시,중구,남산2동,128.5917556,35.86106111
2711066000,대구광역시,중구,남산3동,128.5871972,35.85653333
2711067000,대구광역시,중구,남산4동,128.5827194,35.85523889
2711068000,대구광역시,중구,대봉1동,128.606575,35.85867222
2711069000,대구광역시,중구,대봉2동,128.6019528,35.85520556
2714000000,대구광역시,동구,,128.6377111,35.88361667
2714051000,대구광역시,동구,신암1동,128.6185528,35.88127778
2714052000,대구광역시,동구,신암2동,128.6165333,35.87642778
2714053000,대구광역시,동구,신암3동,128.625375,35.87662778
2714054000,대구광역시,동구,신암4동,128.6315111,35.88209722
2714054100,대구광역시,동구,신암5동,128.6352444,35.886725
2714055500,대구광역시,동구,신천1.2동,128.6167972,35.86711944
2714057000,대구광역시,동구,신천3동,128.6258972,35.87226667
2714058000,대구광역시,동구,신천4동,128.6314861,35.86878611
2714059000,대구광역시,동구,효목1동,128.6474667,35.87815556
2714060000,대구광역시,동구,효목2동,128.6404222,35.87463611
2714061500,대구광역시,동구,도평동,128.6559861,35.90793056
2714062000,대구광역시,동구,불로.봉무동,128.6416222,35.90728333
2714064000,대구광역시,동구,지저동,128.6404556,35.89073056
2714065500,대구광역시,동구,동촌동,128.6519,35.88388889
2714067000,대구광역시,동구,방촌동,128.667475,35.87708333
2714068500,대구광역시,동구,해안동,128.6843306,35.89219167
2714072000,대구광역시,동구,안심1동,128.7043306,35.86738333
2714073000,대구광역시,동구,안심2동,128.6892639,35.87243611
2714074200,대구광역시,동구,안심3동,128.7224295,35.8678684
2714074700,대구광역시,동구,안심4동,128.711046,35.870105
2714075500,대구광역시,동구,혁신동,128.7109768,35.8796992
2714076000,대구광역시,동구,공산동,128.6464667,35.93722222
2717000000,대구광역시,서구,,128.5614111,35.86879444
2717051000,대구광역시,서구,내당1동,128.5629639,35.857675
2717052500,대구광역시,서구,내당2.3동,128.5766889,35.86428333
2717054000,대구광역시,서구,내당4동,128.5538083,35.85776667
2717055000,대구광역시,서구,비산1동,128.5712417,35.87819167
2717056500,대구광역시,서구,비산2.3동,128.576975,35.87272222
2717058000,대구광역시,서구,비산4동,128.5762972,35.86678333
2717059000,대구광역시,서구,비산5동,128.5718444,35.88337778
2717060000,대구광역시,서구,비산6동,128.5713306,35.87333333
2717061000,대구광역시,서구,비산7동,128.5557417,35.88503611
2717062000,대구광역시,서구,평리1동,128.5654889,35.87260556
2717063000,대구광역시,서구,평리2동,128.5659639,35.86826389
2717064000,대구광역시,서구,평리3동,128.5635194,35.87288333
2717065000,대구광역시,서구,평리4동,128.5588889,35.86434444
2717066000,대구광역시,서구,평리5동,128.5509556,35.8708
2717066100,대구광역시,서구,평리6동,128.5503333,35.87224167
2717067500,대구광역시,서구,상중이동,128.5464778,35.86498333
2717069500,대구광역시,서구,원대동,128.5766222,35.88378611
2720000000,대구광역시,남구,,128.5998,35.84297778
2720051500,대구광역시,남구,이천동,128.6016667,35.85071389
2720053000,대구광역시,남구,봉덕1동,128.6001111,35.84256944
2720054000,대구광역시,남구,봉덕2동,128.6032889,35.84085556
2720055000,대구광역시,남구,봉덕3동,128.6004639,35.83869444
2720056000,대구광역시,남구,대명1동,128.5791222,35.83728056
2720057100,대구광역시,남구,대명2동,128.5888778,35.85230556
2720058600,대구광역시,남구,대명3동,128.5813222,35.84936389
2720059000,대구광역시,남구,대명4동,128.5745556,35.84495278
2720060000,대구광역시,남구,대명5동,128.5899889,35.84026111
2720061000,대구광역시,남구,대명6동,128.5680444,35.83209167
2720064000,대구광역시,남구,대명9동,128.5813972,35.83427222
2720065000,대구광역시,남구,대명10동,128.5711889,35.83705
2720066000,대구광역시,남구,대명11동,128.5626528,35.83316389
2723000000,대구광역시,북구,,128.5850222,35.8827
2723051000,대구광역시,북구,고성동,128.5858222,35.87895
2723052600,대구광역시,북구,칠성동,128.6021083,35.87621111
2723055000,대구광역시,북구,침산1동,128.5833889,35.887375
2723056000,대구광역시,북구,침산2동,128.599175,35.88427222
2723057000,대구광역시,북구,침산3동,128.5915528,35.88914444
2723061000,대구광역시,북구,산격1동,128.5969111,35.88965278
2723062000,대구광역시,북구,산격2동,128.6114861,35.89871111
2723063000,대구광역시,북구,산격3동,128.6104972,35.89053056
2723063100,대구광역시,북구,산격4동,128.6064194,35.88930556
2723064500,대구광역시,북구,대현동,128.6058302,35.88218385
2723067100,대구광역시,북구,복현1동,128.6207528,35.89073889
2723067200,대구광역시,북구,복현2동,128.6276639,35.89243611
2723068000,대구광역시,북구,검단동,128.6294,35.91045556
2723069500,대구광역시,북구,무태조야동,128.5994,35.91829444
2723071500,대구광역시,북구,관문동,128.5443778,35.89867222
2723072500,대구광역시,북구,태전1동,128.5458,35.92072222
2723073500,대구광역시,북구,태전2동,128.5510111,35.91853056
2723074500,대구광역시,북구,구암동,128.5716417,35.93736944
2723075000,대구광역시,북구,관음동,128.5496306,35.94137222
2723077000,대구광역시,북구,읍내동,128.5530778,35.94261667
2723078000,대구광역시,북구,동천동,128.5577333,35.94012222
2723079000,대구광역시,북구,노원동,128.5762125,35.8901321
2723080000,대구광역시,북구,국우동,128.5754397,35.9480283
2726000000,대구광역시,수성구,,128.6328667,35.85520833
2726051000,대구광역시,수성구,범어1동,128.6242778,35.8525
2726052000,대구광역시,수성구,범어2동,128.6335306,35.85711389
2726053000,대구광역시,수성구,범어3동,128.6200889,35.86316389
2726054000,대구광역시,수성구,범어4동,128.6434778,35.85514722
2726055000,대구광역시,수성구,만촌1동,128.6491083,35.86991389
2726056000,대구광역시,수성구,만촌2동,128.6494194,35.85689722
2726056100,대구광역시,수성구,만촌3동,128.6527194,35.85250556
2726057000,대구광역시,수성구,수성1가동,128.6129,35.85339444
2726058000,대구광역시,수성구,수성2.3가동,128.6213444,35.85278611
2726059000,대구광역시,수성구,수성4가동,128.6188639,35.85968333
2726060100,대구광역시,수성구,황금1동,128.6404222,35.84096111
2726060200,대구광역시,수성구,황금2동,128.6274417,35.83855556
2726061000,대구광역시,수성구,중동,128.6172222,35.84440278
2726062000,대구광역시,수성구,상동,128.6176222,35.82915833
2726063000,대구광역시,수성구,파동,128.6173111,35.81244444
2726064000,대구광역시,수성구,두산동,128.6228083,35.82635
2726065100,대구광역시,수성구,지산1동,128.6393528,35.82188889
2726065200,대구광역시,수성구,지산2동,128.6302528,35.82013889
2726066100,대구광역시,수성구,범물1동,128.6481861,35.81482222
2726066200,대구광역시,수성구,범물2동,128.6456778,35.81461944
2726067000,대구광역시,수성구,고산1동,128.7146417,35.83414167
2726068000,대구광역시,수성구,고산2동,128.6973444,35.84034722
2726069000,대구광역시,수성구,고산3동,128.7089111,35.84127222
2729000000,대구광역시,달서구,,128.5350639,35.82692778
2729051500,대구광역시,달서구,성당동,128.549565,35.84294152
2729053500,대구광역시,달서구,두류1.2동,128.572198,35.85569344
2729055000,대구광역시,달서구,두류3동,128.5576444,35.85071389
2729055500,대구광역시,달서구,감삼동,128.5443778,35.84806944
2729056300,대구광역시,달서구,죽전동,128.542,35.85283889
2729056800,대구광역시,달서구,장기동,128.5321778,35.84039167
2729057100,대구광역시,달서구,용산1동,128.5335444,35.85371667
2729057200,대구광역시,달서구,용산2동,128.5251528,35.85543889
2729057600,대구광역시,달서구,이곡1동,128.5128,35.8487
2729057700,대구광역시,달서구,이곡2동,128.5030972,35.852825
2729058500,대구광역시,달서구,신당동,128.5010444,35.85603333
2729059000,대구광역시,달서구,본리동,128.5398528,35.83912778
2729060100,대구광역시,달서구,월성1동,128.5251778,35.81665
2729060200,대구광역시,달서구,월성2동,128.5304972,35.82795556
2729061500,대구광역시,달서구,진천동,128.526675,35.8122
2729061700,대구광역시,달서구,유천동,128.5140127,35.81727113
2729062400,대구광역시,달서구,상인1동,128.5471972,35.81125556
2729062500,대구광역시,달서구,상인2동,128.5385194,35.80954167
2729062600,대구광역시,달서구,상인3동,128.5524194,35.80708889
2729062800,대구광역시,달서구,도원동,128.5344,35.80446667
2729063000,대구광역시,달서구,송현1동,128.5556194,35.82638056
2729064000,대구광역시,달서구,송현2동,128.5478194,35.82983611
2729065000,대구광역시,달서구,본동,128.5432889,35.83148611
2771000000,대구광역시,달성군,,128.433275,35.77168056
2771025000,대구광역시,달성군,화원읍,128.5030556,35.80111667
2771025300,대구광역시,달성군,논공읍,128.4225556,35.7711
2771025600,대구광역시,달성군,다사읍,128.456175,35.85883333
2771025900,대구광역시,달성군,유가읍,128.459773,35.693876
2771026200,대구광역시,달성군,옥포읍,128.4659778,35.78664167
2771026500,대구광역시,달성군,현풍읍,128.4497861,35.69431389
2771031000,대구광역시,달성군,가창면,128.6246889,35.79983056
2771033000,대구광역시,달성군,하빈면,128.4477111,35.89794444
2771038000,대구광역시,달성군,구지면,128.4156667,35.65576389
2772000000,대구광역시,군위군,,128.5750778,36.23999722
2772025000,대구광역시,군위군,군위읍,128.5710194,36.23691944
2772031000,대구광역시,군위군,소보면,128.4776222,36.25190556
2772032000,대구광역시,군위군,효령면,128.5876778,36.15387778
2772033000,대구광역시,군위군,부계면,128.6664528,36.09790833
2772034000,대구광역시,군위군,우보면,128.6640417,36.19203611
2772035000,대구광역시,군위군,의흥면,128.7174083,36.172875
2772036000,대구광역시,군위군,산성면,128.6971972,36.12014444
2772037000,대구광역시,군위군,삼국유사면,128.7914861,36.11800833
2800000000,인천광역시,,,126.7073528,37.45323333
2811000000,인천광역시,중구,,126.6235667,37.47093333
2811052000,인천광역시,중구,연안동,126.6066,37.45041944
2811053000,인천광역시,중구,신포동,126.6271556,37.46755556
2811054000,인천광역시,중구,신흥동,126.6361528,37.46487222
2811056000,인천광역시,중구,도원동,126.639975,37.46530556
2811057000,인천광역시,중구,율목동,126.6379556,37.46646111
2811058500,인천광역시,중구,동인천동,126.6311111,37.47404722
2811061500,인천광역시,중구,개항동,126.6206861,37.47255556
2811062000,인천광역시,중구,영종동,126.5329972,37.49074722
2811062200,인천광역시,중구,영종1동,126.554234,37.489325
2811062300,인천광역시,중구,영종2동,126.5687266,37.49928373
2811062800,인천광역시,중구,운서동,126.4884015,37.49339138
2811063000,인천광역시,중구,용유동,126.404475,37.44106944
2814000000,인천광역시,동구,,126.6453667,37.47103611
2814051000,인천광역시,동구,만석동,126.6275306,37.48044444
2814052500,인천광역시,동구,화수1.화평동,126.6319528,37.47873611
2814053000,인천광역시,동구,화수2동,126.6322222,37.48158056
2814055500,인천광역시,동구,송현1.2동,126.6391889,37.47336389
2814057000,인천광역시,동구,송현3동,126.6447222,37.47951667
2814058000,인천광역시,동구,송림1동,126.6423333,37.47348333
2814059000,인천광역시,동구,송림2동,126.6447306,37.473025
2814060500,인천광역시,동구,송림3.5동,126.6486,37.47011667
2814061000,인천광역시,동구,송림4동,126.6520222,37.47546111
2814063000,인천광역시,동구,송림6동,126.6500306,37.47455278
2814064000,인천광역시,동구,금창동,126.6419444,37.46977778
2817700000,인천광역시,미추홀구,,126.6526861,37.46068056
2817751000,인천광역시,미추홀구,숭의2동,126.6493111,37.46025278
2817752000,인천광역시,미추홀구,숭의1.3동,126.6471814,37.4672428
2817753000,인천광역시,미추홀구,숭의4동,126.6612417,37.46204444
2817754000,인천광역시,미추홀구,용현1.4동,126.6599204,37.4562382
2817755000,인천광역시,미추홀구,용현2동,126.6475306,37.45232222
2817756000,인천광역시,미추홀구,용현3동,126.6539667,37.45390833
2817757000,인천광역시,미추홀구,용현5동,126.6424194,37.44971389
2817758000,인천광역시,미추홀구,학익1동,126.6662333,37.43708333
2817759000,인천광역시,미추홀구,학익2동,126.6695083,37.44376944
2817760000,인천광역시,미추홀구,도화1동,126.6758972,37.4581
2817761000,인천광역시,미추홀구,도화2.3동,126.6647547,37.4675264
2817762000,인천광역시,미추홀구,주안1동,126.6787,37.46098333
2817763000,인천광역시,미추홀구,주안2동,126.6747528,37.45191389
2817764000,인천광역시,미추홀구,주안3동,126.6761111,37.44208611
2817765000,인천광역시,미추홀구,주안4동,126.6923667,37.45229444
2817766000,인천광역시,미추홀구,주안5동,126.6891083,37.46306944
2817767000,인천광역시,미추홀구,주안6동,126.6915,37.45965833
2817768000,인천광역시,미추홀구,주안7동,126.6797111,37.44564444
2817769000,인천광역시,미추홀구,주안8동,126.6914194,37.446825
2817770000,인천광역시,미추홀구,관교동,126.6989111,37.44141667
2817771000,인천광역시,미추홀구,문학동,126.6870972,37.43488056
2818500000,인천광역시,연수구,,126.6804417,37.40712222
2818563000,인천광역시,연수구,옥련1동,126.6571417,37.42453333
2818564000,인천광역시,연수구,옥련2동,126.6502861,37.4235
2818575000,인천광역시,연수구,선학동,126.7034306,37.41969167
2818576100,인천광역시,연수구,연수1동,126.6837083,37.41938056
2818576200,인천광역시,연수구,연수2동,126.6839778,37.40887222
2818576300,인천광역시,연수구,연수3동,126.6941556,37.4166
2818576600,인천광역시,연수구,청학동,126.6682194,37.4222
2818578000,인천광역시,연수구,동춘1동,126.6729083,37.40685
2818579000,인천광역시,연수구,동춘2동,126.6713639,37.39991667
2818579500,인천광역시,연수구,동춘3동,126.6803667,37.405625
2818582000,인천광역시,연수구,송도1동,126.652082,37.39105764
2818583000,인천광역시,연수구,송도2동,126.641639,37.40328
2818584000,인천광역시,연수구,송도3동,126.6633667,37.38167222
2818585000,인천광역시,연수구,송도4동,126.634928,37.388109
2818586000,인천광역시,연수구,송도5동,126.623231,37.413941
2820000000,인천광역시,남동구,,126.7337972,37.44451944
2820051000,인천광역시,남동구,구월1동,126.713675,37.44960278
2820052000,인천광역시,남동구,구월2동,126.7154222,37.45326389
2820052100,인천광역시,남동구,구월3동,126.6990333,37.44990833
2820052200,인천광역시,남동구,구월4동,126.7262083,37.44680556
2820053000,인천광역시,남동구,간석1동,126.7073667,37.45582778
2820054000,인천광역시,남동구,간석2동,126.7110667,37.4589
2820055000,인천광역시,남동구,간석3동,126.7166,37.46336389
2820055100,인천광역시,남동구,간석4동,126.7028,37.46378889
2820056000,인천광역시,남동구,만수1동,126.7341333,37.44599444
2820057000,인천광역시,남동구,만수2동,126.7329222,37.45641667
2820058000,인천광역시,남동구,만수3동,126.7251778,37.45916111
2820058100,인천광역시,남동구,만수4동,126.7377111,37.45669722
2820058200,인천광역시,남동구,만수5동,126.7299,37.45520833
2820058300,인천광역시,남동구,만수6동,126.7397528,37.44091389
2820065000,인천광역시,남동구,장수서창동,126.7494528,37.43308333
2820065500,인천광역시,남동구,서창2동,126.7521618,37.4240149
2820066000,인천광역시,남동구,남촌도림동,126.7172861,37.42937778
2820069000,인천광역시,남동구,논현1동,126.7293199,37.40568978
2820070000,인천광역시,남동구,논현2동,126.7163943,37.40422435
2820071000,인천광역시,남동구,논현고잔동,126.7183417,37.40145278
2823700000,인천광역시,부평구,,126.7241,37.50426667
2823751000,인천광역시,부평구,부평1동,126.7221083,37.49143333
2823752000,인천광역시,부평구,부평2동,126.7200417,37.48408889
2823753000,인천광역시,부평구,부평3동,126.7102861,37.48323889
2823754000,인천광역시,부평구,부평4동,126.727,37.49804167
2823755000,인천광역시,부평구,부평5동,126.730475,37.490825
2823756000,인천광역시,부평구,부평6동,126.7265333,37.48363056
2823757000,인천광역시,부평구,산곡1동,126.7023194,37.50414167
2823758000,인천광역시,부평구,산곡2동,126.7107083,37.50305
2823758100,인천광역시,부평구,산곡3동,126.7115111,37.48795278
2823758200,인천광역시,부평구,산곡4동,126.7135444,37.499075
2823759100,인천광역시,부평구,청천1동,126.7038972,37.51392778
2823759200,인천광역시,부평구,청천2동,126.7065333,37.51206111
2823764100,인천광역시,부평구,갈산1동,126.7293444,37.51481111
2823764200,인천광역시,부평구,갈산2동,126.7279306,37.50795556
2823764600,인천광역시,부평구,삼산1동,126.7397778,37.51562778
2823764800,인천광역시,부평구,삼산2동,126.7384861,37.50897222
2823765000,인천광역시,부평구,부개1동,126.7391083,37.4827
2823766000,인천광역시,부평구,부개2동,126.7392222,37.492
2823766100,인천광역시,부평구,부개3동,126.737,37.50156389
2823767000,인천광역시,부평구,일신동,126.7489778,37.48156667
2823768000,인천광역시,부평구,십정1동,126.6982,37.47297222
2823769000,인천광역시,부평구,십정2동,126.7101306,37.471
2824500000,인천광역시,계양구,,126.7397528,37.53479167
2824560100,인천광역시,계양구,효성1동,126.7142222,37.52960556
2824560200,인천광역시,계양구,효성2동,126.7118639,37.52223333
2824561100,인천광역시,계양구,계산1동,126.726575,37.54010833
2824561200,인천광역시,계양구,계산2동,126.7292639,37.54462222
2824561300,인천광역시,계양구,계산3동,126.7311333,37.53392778
2824561400,인천광역시,계양구,계산4동,126.7438972,37.53178333
2824562100,인천광역시,계양구,작전1동,126.7318861,37.52791944
2824562200,인천광역시,계양구,작전2동,126.7260667,37.53008889
2824564000,인천광역시,계양구,작전서운동,126.7385528,37.52523889
2824571000,인천광역시,계양구,계양1동,126.7362417,37.57410278
2824572000,인천광역시,계양구,계양2동,126.7391667,37.54095556
2824573000,인천광역시,계양구,계양3동,126.7604,37.55916667
2826000000,인천광역시,서구,,126.6782,37.54269167
2826051500,인천광역시,서구,검암경서동,126.6757083,37.56166111
2826053000,인천광역시,서구,연희동,126.6802667,37.546225
2826053600,인천광역시,서구,청라1동,126.653834,37.53197235
2826053700,인천광역시,서구,청라2동,126.6410139,37.53196667
2826053900,인천광역시,서구,청라3동,126.6295261,37.5246933
2826054200,인천광역시,서구,가정1동,126.6765333,37.52044722
2826054300,인천광역시,서구,가정2동,126.6798333,37.52355278
2826054400,인천광역시,서구,가정3동,126.6799194,37.51271944
2826055000,인천광역시,서구,석남1동,126.6767972,37.50835556
2826056000,인천광역시,서구,석남2동,126.6766972,37.49981111
2826056100,인천광역시,서구,석남3동,126.680375,37.50541944
2826057500,인천광역시,서구,신현원창동,126.6743528,37.51179722
2826058000,인천광역시,서구,가좌1동,126.6750972,37.49111389
2826059000,인천광역시,서구,가좌2동,126.6869528,37.48805
2826060000,인천광역시,서구,가좌3동,126.6818778,37.48965278
2826061000,인천광역시,서구,가좌4동,126.6856861,37.48462222
2826068000,인천광역시,서구,검단동,126.663375,37.59938056
2826069000,인천광역시,서구,불로대곡동,126.6909778,37.61436111
2826070000,인천광역시,서구,원당동,126.6998444,37.59111389
2826071000,인천광역시,서구,당하동,126.6773111,37.59117222
2826072000,인천광역시,서구,오류왕길동,126.637152,37.597691
2826073000,인천광역시,서구,마전동,126.6613294,37.5929616
2826074000,인천광역시,서구,아라동,126.7156,37.594
2871000000,인천광역시,강화군,,126.49,37.74385833
2871025000,인천광역시,강화군,강화읍,126.4855972,37.74554167
2871031000,인천광역시,강화군,선원면,126.4868861,37.71050556
2871032000,인천광역시,강화군,불은면,126.4824194,37.68385556
2871033000,인천광역시,강화군,길상면,126.4931667,37.637825
2871034000,인천광역시,강화군,화도면,126.4222778,37.62890833
2871035000,인천광역시,강화군,양도면,126.4241556,37.65998611
2871036000,인천광역시,강화군,내가면,126.3918861,37.7166
2871037000,인천광역시,강화군,하점면,126.4136417,37.77193889
2871038000,인천광역시,강화군,양사면,126.4102194,37.795825
2871039000,인천광역시,강화군,송해면,126.4654417,37.761775
2871040000,인천광역시,강화군,교동면,126.2826111,37.77744167
2871041000,인천광역시,강화군,삼산면,126.322875,37.70068056
2871042000,인천광역시,강화군,서도면,126.2421083,37.64758056
2872000000,인천광역시,옹진군,,126.6388889,37.443725
2872031000,인천광역시,옹진군,북도면,126.4291333,37.529675
2872033000,인천광역시,옹진군,백령면,124.7186911,37.9741764
2872034000,인천광역시,옹진군,대청면,124.7141,37.8256
2872035000,인천광역시,옹진군,덕적면,126.1488889,37.22358056
2872036000,인천광역시,옹진군,영흥면,126.4859111,37.25293889
2872037000,인천광역시,옹진군,자월면,126.3132194,37.24825
2872038000,인천광역시,옹진군,연평면,125.7041083,37.66238889
2900000000,광주광역시,,,126.8533639,35.156975
2911000000,광주광역시,동구,,126.9251778,35.1431
2911052500,광주광역시,동구,충장동,126.9193778,35.14628611
2911054500,광주광역시,동구,동명동,126.9272444,35.14811389
2911056000,광주광역시,동구,계림1동,126.9216417,35.15545278
2911057000,광주광역시,동구,계림2동,126.9254417,35.15505278
2911059000,광주광역시,동구,산수1동,126.9327778,35.15425556
2911060000,광주광역시,동구,산수2동,126.9382,35.15151111
2911062000,광주광역시,동구,지산1동,126.9348333,35.14588611
2911063000,광주광역시,동구,지산2동,126.936575,35.14490556
2911065500,광주광역시,동구,서남동,126.9252194,35.14185833
2911068500,광주광역시,동구,학동,126.9262639,35.13137222
2911071000,광주광역시,동구,학운동,126.9356111,35.12938889
2911073000,광주광역시,동구,지원1동,126.9330222,35.11605556
2911074000,광주광역시,동구,지원2동,126.9348528,35.11743889
2914000000,광주광역시,서구,,126.8934111,35.14948333
2914057500,광주광역시,서구,양동,126.9029083,35.15172778
2914059000,광주광역시,서구,양3동,126.8962222,35.15431389
2914065000,광주광역시,서구,농성1동,126.8917778,35.15361111
2914066000,광주광역시,서구,농성2동,126.8923111,35.14731111
2914073000,광주광역시,서구,광천동,126.882375,35.16133889
2914074000,광주광역시,서구,유덕동,126.8540194,35.16224444
2914074500,광주광역시,서구,치평동,126.8451778,35.14699167
2914075100,광주광역시,서구,상무1동,126.8694528,35.15068333
2914075200,광주광역시,서구,상무2동,126.8684444,35.14341111
2914076000,광주광역시,서구,화정1동,126.8798,35.15311389
2914077000,광주광역시,서구,화정2동,126.8844444,35.14252222
2914078000,광주광역시,서구,화정3동,126.8789528,35.14041389
2914079000,광주광역시,서구,화정4동,126.8759556,35.13879722
2914080000,광주광역시,서구,서창동,126.8322861,35.11143611
2914082100,광주광역시,서구,금호1동,126.8591889,35.13208333
2914082400,광주광역시,서구,금호2동,126.8609111,35.12908889
2914083000,광주광역시,서구,풍암동,126.8806861,35.121725
2914084000,광주광역시,서구,동천동,126.864704,35.17129
2915500000,광주광역시,남구,,126.9101444,35.11903611
2915551000,광주광역시,남구,양림동,126.9177333,35.13384167
2915552000,광주광역시,남구,방림1동,126.9203556,35.13128056
2915553000,광주광역시,남구,방림2동,126.9240667,35.12886389
2915553700,광주광역시,남구,봉선1동,126.9130639,35.12747778
2915553800,광주광역시,남구,봉선2동,126.9158333,35.12044444
2915554500,광주광역시,남구,사직동,126.9099556,35.14271389
2915560500,광주광역시,남구,월산동,126.9046889,35.144475
2915563000,광주광역시,남구,월산4동,126.8929083,35.14361667
2915564000,광주광역시,남구,월산5동,126.8945972,35.13709167
2915567000,광주광역시,남구,백운1동,126.9059778,35.135175
2915568000,광주광역시,남구,백운2동,126.9043861,35.13302222
2915569000,광주광역시,남구,주월1동,126.8954889,35.12891111
2915570000,광주광역시,남구,주월2동,126.8962083,35.13159722
2915570500,광주광역시,남구,진월동,126.8985664,35.11245699
2915571000,광주광역시,남구,효덕동,126.9006444,35.10936389
2915572000,광주광역시,남구,송암동,126.8792889,35.108425
2915573000,광주광역시,남구,대촌동,126.8360667,35.07825556
2917000000,광주광역시,북구,,126.9141222,35.171125
2917051000,광주광역시,북구,중흥1동,126.9160111,35.15857222
2917053500,광주광역시,북구,중흥동,126.9140941,35.16937875
2917055500,광주광역시,북구,중앙동,126.9082528,35.154375
2917057000,광주광역시,북구,임동,126.8963306,35.16276944
2917058000,광주광역시,북구,신안동,126.9007528,35.164375
2917059000,광주광역시,북구,용봉동,126.9033083,35.17730556
2917060100,광주광역시,북구,운암1동,126.8764778,35.17178889
2917060200,광주광역시,북구,운암2동,126.8847528,35.17097222
2917060300,광주광역시,북구,운암3동,126.8764306,35.179675
2917061500,광주광역시,북구,동림동,126.8686,35.18388056
2917062000,광주광역시,북구,우산동,126.9230222,35.16724167
2917063500,광주광역시,북구,풍향동,126.9251306,35.16144167
2917065000,광주광역시,북구,문화동,126.9389194,35.17843889
2917065600,광주광역시,북구,문흥1동,126.9237,35.18369444
2917065700,광주광역시,북구,문흥2동,126.9240194,35.18121944
2917066100,광주광역시,북구,두암1동,126.9309861,35.16796111
2917066200,광주광역시,북구,두암2동,126.934075,35.17104167
2917066300,광주광역시,북구,두암3동,126.9368306,35.15995278
2917066600,광주광역시,북구,삼각동,126.9016,35.19620833
2917066900,광주광역시,북구,일곡동,126.8994667,35.20295556
2917067300,광주광역시,북구,매곡동,126.8941889,35.186425
2917067600,광주광역시,북구,오치1동,126.91,35.18611944
2917067700,광주광역시,북구,오치2동,126.9026222,35.18701389
2917068500,광주광역시,북구,석곡동,126.9520417,35.21191944
2917069500,광주광역시,북구,건국동,126.8837,35.21985
2917069600,광주광역시,북구,양산동,126.879628,35.20917073
2917069700,광주광역시,북구,신용동,126.8629158,35.2064889
2920000000,광주광역시,광산구,,126.7957889,35.13642778
2920051500,광주광역시,광산구,송정1동,126.8008,35.13772222
2920052500,광주광역시,광산구,송정2동,126.7967083,35.13597778
2920054000,광주광역시,광산구,도산동,126.7936,35.12631111
2920055000,광주광역시,광산구,신흥동,126.8027444,35.14210278
2920056500,광주광역시,광산구,어룡동,126.7971972,35.13944167
2920058000,광주광역시,광산구,우산동,126.8115333,35.15474167
2920060000,광주광역시,광산구,월곡1동,126.8119333,35.16881111
2920061000,광주광역시,광산구,월곡2동,126.8098667,35.17130278
2920062000,광주광역시,광산구,비아동,126.8264194,35.21896389
2920062400,광주광역시,광산구,첨단1동,126.8442444,35.21652778
2920062600,광주광역시,광산구,첨단2동,126.845475,35.21324722
2920063000,광주광역시,광산구,신가동,126.8296417,35.17851111
2920063500,광주광역시,광산구,운남동,126.8238556,35.17034722
2920063700,광주광역시,광산구,수완동,126.825751,35.1971
2920064000,광주광역시,광산구,하남동,126.7960861,35.181875
2920065000,광주광역시,광산구,임곡동,126.7468111,35.21656389
2920066000,광주광역시,광산구,동곡동,126.7741333,35.09560833
2920067000,광주광역시,광산구,평동,126.7623333,35.12167222
2920068000,광주광역시,광산구,삼도동,126.6996083,35.15911667
2920069000,광주광역시,광산구,본량동,126.730875,35.17769722
2920070000,광주광역시,광산구,신창동,126.8407192,35.195582
3000000000,대전광역시,,,127.3865667,36.34711944
3011000000,대전광역시,동구,,127.4348528,36.32413333
3011051500,대전광역시,동구,중앙동,127.4311,36.32891944
3011053000,대전광역시,동구,효동,127.4438639,36.31408056
3011054500,대전광역시,동구,신인동,127.437938,36.323425
3011055100,대전광역시,동구,판암1동,127.4598528,36.31440278
3011055200,대전광역시,동구,판암2동,127.4595083,36.31746111
3011056000,대전광역시,동구,용운동,127.4636,36.32515833
3011058500,대전광역시,동구,대동,127.4478667,36.32541667
3011059000,대전광역시,동구,자양동,127.4512417,36.33246111
3011062000,대전광역시,동구,가양1동,127.4435778,36.34408889
3011063000,대전광역시,동구,가양2동,127.4495083,36.34611111
3011064000,대전광역시,동구,용전동,127.4344111,36.35510556
3011066500,대전광역시,동구,성남동,127.4374361,36.3445416
3011067000,대전광역시,동구,홍도동,127.4254556,36.34403611
3011069500,대전광역시,동구,삼성동,127.4221987,36.3405954
3011072500,대전광역시,동구,대청동,127.4947306,36.34064722
3011074000,대전광역시,동구,산내동,127.469975,36.278625
3014000000,대전광역시,중구,,127.4231111,36.32263056
3014053500,대전광역시,중구,은행선화동,127.4204,36.32484444
3014055000,대전광역시,중구,목동,127.4146222,36.33145
3014056000,대전광역시,중구,중촌동,127.412426,36.33890382
3014057500,대전광역시,중구,대흥동,127.4280306,36.31739722
3014060500,대전광역시,중구,문창동,127.4400556,36.31327222
3014062000,대전광역시,중구,석교동,127.4445333,36.30672778
3014063000,대전광역시,중구,대사동,127.426975,36.31471389
3014064000,대전광역시,중구,부사동,127.4358222,36.31127222
3014065500,대전광역시,중구,용두동,127.412475,36.32256944
3014067000,대전광역시,중구,오류동,127.4059222,36.3226
3014068000,대전광역시,중구,태평1동,127.3991667,36.32323056
3014069000,대전광역시,중구,태평2동,127.395,36.318325
3014070000,대전광역시,중구,유천1동,127.3973667,36.31213611
3014071000,대전광역시,중구,유천2동,127.4013306,36.31248333
3014072000,대전광역시,중구,문화1동,127.4086417,36.31242778
3014073000,대전광역시,중구,문화2동,127.4013444,36.30478889
3014074000,대전광역시,중구,산성동,127.3882194,36.30243611
3017000000,대전광역시,서구,,127.385775,36.35248333
3017051000,대전광역시,서구,복수동,127.3759778,36.30383333
3017052000,대전광역시,서구,도마1동,127.3831861,36.31306389
3017053000,대전광역시,서구,도마2동,127.3757083,36.30983056
3017053500,대전광역시,서구,정림동,127.3688639,36.30154722
3017054000,대전광역시,서구,변동,127.3888889,36.32291667
3017055000,대전광역시,서구,용문동,127.3963889,36.33369444
3017055500,대전광역시,서구,탄방동,127.3972639,36.34366944
3017056000,대전광역시,서구,괴정동,127.3841417,36.33425833
3017057000,대전광역시,서구,가장동,127.3873528,36.32715
3017057500,대전광역시,서구,내동,127.3795083,36.32925833
3017058100,대전광역시,서구,갈마1동,127.369975,36.34974444
3017058200,대전광역시,서구,갈마2동,127.3770222,36.34375556
3017058600,대전광역시,서구,월평1동,127.3597306,36.35175833
3017058700,대전광역시,서구,월평2동,127.3762333,36.36063056
3017058800,대전광역시,서구,월평3동,127.369,36.35736111
3017059000,대전광역시,서구,가수원동,127.3514111,36.30061667
3017059300,대전광역시,서구,도안동,127.3467324,36.32361794
3017059600,대전광역시,서구,관저1동,127.3394,36.30091111
3017059700,대전광역시,서구,관저2동,127.3372222,36.29621111
3017060000,대전광역시,서구,기성동,127.3437639,36.25293056
3017063000,대전광역시,서구,둔산1동,127.3879417,36.34951944
3017064000,대전광역시,서구,둔산2동,127.3856528,36.35084722
3017065000,대전광역시,서구,만년동,127.3771306,36.36462778
3017066000,대전광역시,서구,둔산3동,127.4000006,36.3534312
3020000000,대전광역시,유성구,,127.3583417,36.35936667
3020052000,대전광역시,유성구,진잠동,127.3186,36.29685
3020052600,대전광역시,유성구,학하동,127.3087298,36.34113969
3020052700,대전광역시,유성구,상대동,127.3346913,36.34679453
3020053000,대전광역시,유성구,온천1동,127.3411111,36.35025556
3020054000,대전광역시,유성구,온천2동,127.3390417,36.35722778
3020054600,대전광역시,유성구,노은1동,127.3205556,36.36533056
3020054700,대전광역시,유성구,노은2동,127.3139111,36.38858056
3020054800,대전광역시,유성구,노은3동,127.307896,36.386791
3020055000,대전광역시,유성구,신성동,127.3495333,36.38625
3020057000,대전광역시,유성구,전민동,127.4025306,36.39702778
3020058000,대전광역시,유성구,구즉동,127.3859222,36.43746944
3020060000,대전광역시,유성구,관평동,127.3887774,36.42316994
3020061000,대전광역시,유성구,원신흥동,127.343296,36.342146
3023000000,대전광역시,대덕구,,127.4176861,36.34379444
3023051000,대전광역시,대덕구,오정동,127.411975,36.35083333
3023052000,대전광역시,대덕구,대화동,127.4134639,36.36345
3023052500,대전광역시,대덕구,회덕동,127.4236,36.37333333
3023053300,대전광역시,대덕구,비래동,127.4520222,36.35201389
3023054300,대전광역시,대덕구,송촌동,127.4420333,36.36272222
3023054600,대전광역시,대덕구,중리동,127.4285528,36.35772222
3023055000,대전광역시,대덕구,신탄진동,127.4312083,36.44878889
3023056000,대전광역시,대덕구,석봉동,127.427875,36.44519444
3023057000,대전광역시,대덕구,덕암동,127.429075,36.43734444
3023058000,대전광역시,대덕구,목상동,127.4143306,36.445575
3023060000,대전광역시,대덕구,법1동,127.4288972,36.36790556
3023061000,대전광역시,대덕구,법2동,127.4329083,36.36431944
3100000000,울산광역시,,,129.3136889,35.53540833
3111000000,울산광역시,중구,,129.334875,35.56634167
3111051000,울산광역시,중구,학성동,129.3369861,35.55231944
3111052000,울산광역시,중구,반구1동,129.3439111,35.55338611
3111053000,울산광역시,중구,반구2동,129.3430972,35.56030556
3111055500,울산광역시,중구,복산동,129.3342518,35.56579338
3111058500,울산광역시,중구,중앙동,129.32405,35.557542
3111059000,울산광역시,중구,우정동,129.3146417,35.55173611
3111060000,울산광역시,중구,태화동,129.3067306,35.55351667
3111061000,울산광역시,중구,다운동,129.2779889,35.5533
3111062000,울산광역시,중구,병영1동,129.3488556,35.56701111
3111063000,울산광역시,중구,병영2동,129.348275,35.57635
3111064000,울산광역시,중구,약사동,129.3395417,35.56739167
3111065000,울산광역시,중구,성안동,129.3096972,35.57434167
3114000000,울산광역시,남구,,129.3323861,35.54076389
3114051000,울산광역시,남구,신정1동,129.3088444,35.53829167
3114052000,울산광역시,남구,신정2동,129.3101778,35.53161111
3114053000,울산광역시,남구,신정3동,129.3187222,35.54196667
3114054000,울산광역시,남구,신정4동,129.3167778,35.52628056
3114055000,울산광역시,남구,신정5동,129.3237222,35.54185
3114056000,울산광역시,남구,달동,129.3188444,35.53339444
3114057000,울산광역시,남구,삼산동,129.3341556,35.54138889
3114058500,울산광역시,남구,삼호동,129.268275,35.54694444
3114059500,울산광역시,남구,무거동,129.2630111,35.54792222
3114060000,울산광역시,남구,옥동,129.2961667,35.53224444
3114062500,울산광역시,남구,대현동,129.3291222,35.52350833
3114063500,울산광역시,남구,수암동,129.3206667,35.52135833
3114064000,울산광역시,남구,선암동,129.3375,35.50986111
3114067000,울산광역시,남구,야음장생포동,129.341275,35.51658056
3117000000,울산광역시,동구,,129.4189528,35.50188889
3117051000,울산광역시,동구,방어동,129.4264111,35.482975
3117052000,울산광역시,동구,일산동,129.4285444,35.49503056
3117053000,울산광역시,동구,화정동,129.4268639,35.4907
3117054000,울산광역시,동구,대송동,129.4206444,35.50013611
3117055000,울산광역시,동구,전하1동,129.430875,35.51375833
3117056000,울산광역시,동구,전하2동,129.431575,35.50630278
3117058000,울산광역시,동구,남목1동,129.4231333,35.53634167
3117059000,울산광역시,동구,남목2동,129.4338889,35.52156389
3117060000,울산광역시,동구,남목3동,129.4336333,35.54294444
3120000000,울산광역시,북구,,129.3635444,35.57968889
3120051000,울산광역시,북구,농소1동,129.3583333,35.61975278
3120052000,울산광역시,북구,농소2동,129.350475,35.63523889
3120053000,울산광역시,북구,농소3동,129.3419333,35.62563333
3120054000,울산광역시,북구,강동동,129.4506528,35.61240556
3120056000,울산광역시,북구,효문동,129.3633972,35.57479167
3120057000,울산광역시,북구,송정동,129.3598111,35.591775
3120058000,울산광역시,북구,양정동,129.3878083,35.54293611
3120059000,울산광역시,북구,염포동,129.4013972,35.52381944
3171000000,울산광역시,울주군,,129.2971639,35.53073889
3171025000,울산광역시,울주군,온산읍,129.3168639,35.43158056
3171025300,울산광역시,울주군,언양읍,129.1280444,35.56637222
3171025600,울산광역시,울주군,온양읍,129.2830556,35.41590278
3171025900,울산광역시,울주군,범서읍,129.2324194,35.56590278
3171026200,울산광역시,울주군,청량읍,129.306002,35.49313
3171026500,울산광역시,울주군,삼남읍,129.1065147,35.5388225
3171031000,울산광역시,울주군,서생면,129.3285667,35.34617222
3171034000,울산광역시,울주군,웅촌면,129.2118444,35.46313056
3171036000,울산광역시,울주군,두동면,129.2035306,35.65121667
3171037000,울산광역시,울주군,두서면,129.1612,35.64043056
3171038000,울산광역시,울주군,상북면,129.0934639,35.58756111
3171040000,울산광역시,울주군,삼동면,129.1591556,35.51908611
3600000000,세종특별자치시,,,127.2890691,36.4800121
3611000000,세종특별자치시,세종특별자치시,,127.2890691,36.4800121
3611025000,세종특별자치시,세종특별자치시,조치원읍,127.298399,36.604528
3611031000,세종특별자치시,세종특별자치시,연기면,127.2737741,36.5418737
3611032000,세종특별자치시,세종특별자치시,연동면,127.3268658,36.5590889
3611033000,세종특별자치시,세종특별자치시,부강면,127.370376,36.527112
3611034000,세종특별자치시,세종특별자치시,금남면,127.28035,36.463826
3611035000,세종특별자치시,세종특별자치시,장군면,127.2056006,36.4967934
3611036000,세종특별자치시,세종특별자치시,연서면,127.2716217,36.592587
3611037000,세종특별자치시,세종특별자치시,전의면,127.1955125,36.6812513
3611038000,세종특별자치시,세종특별자치시,전동면,127.2641625,36.6560904
3611039000,세종특별자치시,세종특별자치시,소정면,127.1582525,36.7223175
3611051000,세종특별자치시,세종특별자치시,한솔동,127.254625,36.47903611
3611051500,세종특별자치시,세종특별자치시,새롬동,127.256899,36.486542
3611051800,세종특별자치시,세종특별자치시,나성동,127.2643055,36.4891526
3611052000,세종특별자치시,세종특별자치시,도담동,127.2623972,36.51731111
3611052300,세종특별자치시,세종특별자치시,어진동,127.2567079,36.50174491
3611052500,세종특별자치시,세종특별자치시,해밀동,127.2680855,36.52702202
3611053000,세종특별자치시,세종특별자치시,아름동,127.2482222,36.51204167
3611054000,세종특별자치시,세종특별자치시,종촌동,127.247612,36.5119569
3611055000,세종특별자치시,세종특별자치시,고운동,127.236841,36.519776
3611055500,세종특별자치시,세종특별자치시,소담동,127.3011911,36.4835223
3611055600,세종특별자치시,세종특별자치시,반곡동,127.3106783,36.49875316
3611056000,세종특별자치시,세종특별자치시,보람동,127.290412,36.47885
3611057000,세종특별자치시,세종특별자치시,대평동,127.2795296,36.4712699
3611058000,세종특별자치시,세종특별자치시,다정동,127.2479133,36.4939773
4100000000,경기도,,,127.0116889,37.27184444
4111100000,경기도,수원시장안구,,127.0122222,37.30101111
4111156000,경기도,수원시장안구,파장동,126.9968861,37.30558333
4111156600,경기도,수원시장안구,율천동,126.9735778,37.29476944
4111157100,경기도,수원시장안구,정자1동,126.993375,37.29938611
4111157200,경기도,수원시장안구,정자2동,127.0026222,37.29228611
4111157300,경기도,수원시장안구,정자3동,126.9976639,37.29377778
4111158000,경기도,수원시장안구,영화동,127.0161333,37.29031667
4111159100,경기도,수원시장안구,송죽동,127.009175,37.29766667
4111159700,경기도,수원시장안구,조원1동,127.0184972,37.29898611
4111159800,경기도,수원시장안구,조원2동,127.0118194,37.30278889
4111160000,경기도,수원시장안구,연무동,127.0236667,37.28771944
4111300000,경기도,수원시권선구,,126.974075,37.25473333
4111352000,경기도,수원시권선구,세류1동,127.0100556,37.25935833
4111353000,경기도,수원시권선구,세류2동,127.0151306,37.25051667
4111354000,경기도,수원시권선구,세류3동,127.0140333,37.25621944
4111355000,경기도,수원시권선구,평동,126.9961333,37.25516667
4111356000,경기도,수원시권선구,서둔동,126.9880972,37.269725
4111365000,경기도,수원시권선구,구운동,126.9735778,37.27434444
4111366200,경기도,수원시권선구,금곡동,126.9521816,37.2727402
4111366400,경기도,수원시권선구,호매실동,126.9570883,37.2662253
4111367000,경기도,수원시권선구,권선1동,127.036975,37.25377778
4111368000,경기도,수원시권선구,권선2동,127.0317778,37.24849167
4111369000,경기도,수원시권선구,곡선동,127.0354222,37.24038611
4111370000,경기도,수원시권선구,입북동,126.9617306,37.29042222
4111500000,경기도,수원시팔달구,,127.0378333,37.28310278
4111565000,경기도,수원시팔달구,매교동,127.016275,37.26567778
4111566000,경기도,수원시팔달구,매산동,127.0077778,37.26588889
4111567000,경기도,수원시팔달구,고등동,127.0032194,37.27048056
4111568000,경기도,수원시팔달구,화서1동,126.9968861,37.27385
4111569000,경기도,수원시팔달구,화서2동,126.9963556,37.28051389
4111570000,경기도,수원시팔달구,지동,127.0305222,37.27921111
4111571000,경기도,수원시팔달구,우만1동,127.0314528,37.28253889
4111572000,경기도,수원시팔달구,우만2동,127.0418528,37.27511667
4111573000,경기도,수원시팔달구,인계동,127.0233889,37.26755556
4111574000,경기도,수원시팔달구,행궁동,127.0147528,37.28125278
4111700000,경기도,수원시영통구,,127.0486333,37.25631111
4111751000,경기도,수원시영통구,매탄1동,127.0425639,37.26763056
4111752000,경기도,수원시영통구,매탄2동,127.0495,37.26725
4111753000,경기도,수원시영통구,매탄3동,127.0451528,37.25376944
4111754000,경기도,수원시영통구,매탄4동,127.0507889,37.26226944
4111755000,경기도,수원시영통구,원천동,127.0595333,37.27085278
4111757000,경기도,수원시영통구,영통1동,127.0826444,37.26345556
4111758000,경기도,수원시영통구,영통2동,127.0584222,37.24405556
4111758500,경기도,수원시영통구,영통3동,127.076907,37.252774
4111759300,경기도,수원시영통구,망포1동,127.0588917,37.2378191
4111759600,경기도,수원시영통구,망포2동,127.0493384,37.2387141
4111760000,경기도,수원시영통구,광교1동,127.0476306,37.29023056
4111761000,경기도,수원시영통구,광교2동,127.0701278,37.29220556
4113100000,경기도,성남시수정구,,127.1477194,37.44749167
4113151000,경기도,성남시수정구,신흥1동,127.143275,37.44023889
4113152000,경기도,성남시수정구,신흥2동,127.1478889,37.44585278
4113153000,경기도,성남시수정구,신흥3동,127.1510861,37.44073333
4113154000,경기도,성남시수정구,태평1동,127.1283333,37.43785833
4113155000,경기도,성남시수정구,태평2동,127.1408,37.44486667
4113156000,경기도,성남시수정구,태평3동,127.1350222,37.44261667
4113156100,경기도,성남시수정구,태평4동,127.1434639,37.44513889
4113157000,경기도,성남시수정구,수진1동,127.1411111,37.43572222
4113158000,경기도,성남시수정구,수진2동,127.1307528,37.43458333
4113159000,경기도,성남시수정구,단대동,127.1574194,37.44666667
4113160000,경기도,성남시수정구,산성동,127.1522528,37.44947222
4113161000,경기도,성남시수정구,양지동,127.1631111,37.45211111
4113162000,경기도,성남시수정구,복정동,127.1292889,37.46272222
4113162500,경기도,성남시수정구,위례동,127.1496548,37.4682355
4113163000,경기도,성남시수정구,신촌동,127.1065194,37.45188611
4113164000,경기도,성남시수정구,고등동,127.1036417,37.42223333
4113165000,경기도,성남시수정구,시흥동,127.1102333,37.41921389
4113300000,경기도,성남시중원구,,127.1394194,37.42766944
4113351000,경기도,성남시중원구,성남동,127.1335306,37.429075
4113352500,경기도,성남시중원구,중앙동,127.1574717,37.4439752
4113353000,경기도,성남시중원구,금광1동,127.1645333,37.44223611
4113354000,경기도,성남시중원구,금광2동,127.1661333,37.44347222
4113355000,경기도,성남시중원구,은행1동,127.1709972,37.44924722
4113356000,경기도,성남시중원구,은행2동,127.1687889,37.4543
4113357000,경기도,성남시중원구,상대원1동,127.1664194,37.43045556
4113358000,경기도,성남시중원구,상대원2동,127.1604,37.43610278
4113359000,경기도,성남시중원구,상대원3동,127.1675,37.43691389
4113366000,경기도,성남시중원구,하대원동,127.1484639,37.42548056
4113367000,경기도,성남시중원구,도촌동,127.1536417,37.41619167
4113500000,경기도,성남시분당구,,127.1210194,37.37996944
4113551000,경기도,성남시분당구,분당동,127.1332,37.36728333
4113552000,경기도,성남시분당구,수내1동,127.1201306,37.37258333
4113553000,경기도,성남시분당구,수내2동,127.1229417,37.36955278
4113554000,경기도,성남시분당구,수내3동,127.128275,37.36399722
4113554500,경기도,성남시분당구,정자동,127.1115444,37.36145
4113555000,경기도,성남시분당구,정자1동,127.1135861,37.35865833
4113556000,경기도,성남시분당구,정자2동,127.1173111,37.36313611
4113557000,경기도,성남시분당구,정자3동,127.1216333,37.35796389
4113558000,경기도,성남시분당구,서현1동,127.1278889,37.37983056
4113559000,경기도,성남시분당구,서현2동,127.1366667,37.37319444
4113560000,경기도,성남시분당구,이매1동,127.1292444,37.39673889
4113561000,경기도,성남시분당구,이매2동,127.1239861,37.39675556
4113562000,경기도,성남시분당구,야탑1동,127.1323194,37.40921389
4113563000,경기도,성남시분당구,야탑2동,127.1294194,37.406575
4113564000,경기도,성남시분당구,야탑3동,127.1400222,37.40799722
4113565000,경기도,성남시분당구,판교동,127.1032,37.37924722
4113565500,경기도,성남시분당구,삼평동,127.1163879,37.4060718
4113565700,경기도,성남시분당구,백현동,127.1108405,37.3885291
4113566200,경기도,성남시분당구,금곡동,127.1070525,37.3516471
4113566500,경기도,성남시분당구,구미1동,127.111763,37.349365
4113567000,경기도,성남시분당구,구미동,127.1230306,37.33675556
4113568000,경기도,성남시분당구,운중동,127.0803667,37.39204167
4115000000,경기도,의정부시,,127.0358417,37.73528889
4115051000,경기도,의정부시,의정부1동,127.0498444,37.74370278
4115052000,경기도,의정부시,의정부2동,127.0449333,37.73800556
4115054500,경기도,의정부시,호원1동,127.0508222,37.70919444
4115055500,경기도,의정부시,호원2동,127.0451972,37.72374444
4115056100,경기도,의정부시,장암동,127.0563444,37.72359722
4115056700,경기도,의정부시,신곡1동,127.0589194,37.72874444
4115056800,경기도,의정부시,신곡2동,127.0600556,37.74087222
4115057300,경기도,의정부시,송산1동,127.0867647,37.7311223
4115057600,경기도,의정부시,송산2동,127.0921778,37.73692222
4115057800,경기도,의정부시,송산3동,127.1117084,37.7553122
4115058000,경기도,의정부시,자금동,127.0602861,37.74753056
4115059500,경기도,의정부시,가능동,127.0444333,37.74626111
4115061500,경기도,의정부시,흥선동,127.030622,37.746306
4115062000,경기도,의정부시,녹양동,127.0344194,37.75736111
4115063000,경기도,의정부시,고산동,127.1080608,37.73150113
4117100000,경기도,안양시만안구,,126.9345,37.38377778
4117151000,경기도,안양시만안구,안양1동,126.9281333,37.39633889
4117152000,경기도,안양시만안구,안양2동,126.9198667,37.402225
4117153000,경기도,안양시만안구,안양3동,126.9167972,37.39323056
4117154000,경기도,안양시만안구,안양4동,126.9198861,37.39358611
4117155000,경기도,안양시만안구,안양5동,126.9230639,37.39153333
4117156000,경기도,안양시만안구,안양6동,126.9326444,37.38721667
4117157000,경기도,안양시만안구,안양7동,126.9379556,37.3897
4117158000,경기도,안양시만안구,안양8동,126.9342222,37.38143611
4117158100,경기도,안양시만안구,안양9동,126.9105639,37.38865833
4117159000,경기도,안양시만안구,석수1동,126.9126972,37.41674722
4117160000,경기도,안양시만안구,석수2동,126.9094333,37.41428056
4117161100,경기도,안양시만안구,충훈동,126.8994408,37.40919708
4117162100,경기도,안양시만안구,박달1동,126.9111528,37.40088056
4117163000,경기도,안양시만안구,박달2동,126.9036417,37.39895
4117300000,경기도,안양시동안구,,126.9533556,37.3897
4117351000,경기도,안양시동안구,비산1동,126.9355444,37.39698333
4117352000,경기도,안양시동안구,비산2동,126.9435778,37.39425556
4117353000,경기도,안양시동안구,비산3동,126.9468861,37.401575
4117354000,경기도,안양시동안구,부흥동,126.9493528,37.39084444
4117354600,경기도,안양시동안구,달안동,126.9522639,37.39326389
4117355200,경기도,안양시동안구,관양동,126.9614648,37.4061363
4117355900,경기도,안양시동안구,인덕원동,126.9709794,37.40226689
4117356600,경기도,안양시동안구,부림동,126.9615667,37.395925
4117357000,경기도,안양시동안구,평촌동,126.975775,37.38658333
4117357600,경기도,안양시동안구,평안동,126.9663444,37.38759167
4117357800,경기도,안양시동안구,귀인동,126.9715333,37.38269444
4117358000,경기도,안양시동안구,호계1동,126.9603417,37.36808333
4117359000,경기도,안양시동안구,호계2동,126.9546639,37.37840556
4117360000,경기도,안양시동안구,호계3동,126.9609222,37.36467222
4117361000,경기도,안양시동안구,범계동,126.9545889,37.38694722
4117362000,경기도,안양시동안구,신촌동,126.9584861,37.37917778
4117363000,경기도,안양시동안구,갈산동,126.9682417,37.37333889
4119200000,경기도,부천시원미구,,126.786997,37.49659252
4119251000,경기도,부천시원미구,심곡1동,126.7805876,37.49092023
4119252000,경기도,부천시원미구,심곡2동,126.7870402,37.48737531
4119253000,경기도,부천시원미구,심곡3동,126.7738589,37.48740938
4119254000,경기도,부천시원미구,원미1동,126.7887023,37.49439938
4119255000,경기도,부천시원미구,원미2동,126.788271,37.49194562
4119256000,경기도,부천시원미구,소사동,126.7946454,37.48588184
4119257000,경기도,부천시원미구,역곡1동,126.8166911,37.48924057
4119258000,경기도,부천시원미구,역곡2동,126.806681,37.4860801
4119259000,경기도,부천시원미구,춘의동,126.7859025,37.50268809
4119260000,경기도,부천시원미구,도당동,126.7859175,37.51625948
4119261000,경기도,부천시원미구,약대동,126.771315,37.51329935
4119262000,경기도,부천시원미구,중동,126.7681843,37.48780834
4119263000,경기도,부천시원미구,중1동,126.7714413,37.49785189
4119264000,경기도,부천시원미구,중2동,126.7698869,37.49397455
4119265000,경기도,부천시원미구,중3동,126.7780507,37.50374354
4119266000,경기도,부천시원미구,중4동,126.7625805,37.50602904
4119267000,경기도,부천시원미구,상동,126.7607952,37.49489804
4119268000,경기도,부천시원미구,상1동,126.7531553,37.4918099
4119269000,경기도,부천시원미구,상2동,126.7543904,37.5005387
4119270000,경기도,부천시원미구,상3동,126.7510345,37.50819245
4119400000,경기도,부천시소사구,,126.7999413,37.48003888
4119451000,경기도,부천시소사구,심곡본1동,126.778956,37.48245223
4119452000,경기도,부천시소사구,심곡본동,126.7800324,37.48070403
4119453000,경기도,부천시소사구,소사본동,126.7921536,37.47621868
4119454000,경기도,부천시소사구,소사본1동,126.7980443,37.47284111
4119455000,경기도,부천시소사구,범박동,126.8097448,37.47059449
4119456000,경기도,부천시소사구,옥길동,126.82257,37.46691129
4119457000,경기도,부천시소사구,괴안동,126.8068817,37.47839033
4119458000,경기도,부천시소사구,역곡3동,126.8102373,37.48259671
4119459000,경기도,부천시소사구,송내1동,126.7561007,37.48406962
4119460000,경기도,부천시소사구,송내2동,126.7696026,37.48254248
4119600000,경기도,부천시오정구,,126.7958131,37.52834816
4119651000,경기도,부천시오정구,성곡동,126.8035112,37.51667298
4119652000,경기도,부천시오정구,원종1동,126.8054582,37.52594751
4119653000,경기도,부천시오정구,원종2동,126.7991393,37.52515531
4119654000,경기도,부천시오정구,고강본동,126.8248515,37.52704555
4119655000,경기도,부천시오정구,고강1동,126.8120108,37.52946076
4119656000,경기도,부천시오정구,오정동,126.7907377,37.52884609
4119657000,경기도,부천시오정구,신흥동,126.7733237,37.5204369
4121000000,경기도,광명시,,126.8667083,37.47575
4121051000,경기도,광명시,광명1동,126.8647222,37.48581944
4121052000,경기도,광명시,광명2동,126.8579889,37.48055833
4121054000,경기도,광명시,광명3동,126.859,37.4774
4121055000,경기도,광명시,광명4동,126.8584222,37.47429167
4121056000,경기도,광명시,광명5동,126.8492639,37.47596667
4121057000,경기도,광명시,광명6동,126.8510667,37.46884722
4121058000,경기도,광명시,광명7동,126.8556444,37.46653333
4121059000,경기도,광명시,철산1동,126.8699556,37.48802222
4121060000,경기도,광명시,철산2동,126.8687083,37.481875
4121061000,경기도,광명시,철산3동,126.8724333,37.47809444
4121062000,경기도,광명시,철산4동,126.8666,37.47127778
4121063100,경기도,광명시,하안1동,126.8712417,37.46233889
4121063200,경기도,광명시,하안2동,126.8768528,37.46191389
4121063300,경기도,광명시,하안3동,126.883775,37.45594167
4121063400,경기도,광명시,하안4동,126.8798667,37.46292778
4121064000,경기도,광명시,소하1동,126.8875083,37.44581944
4121065000,경기도,광명시,소하2동,126.8798194,37.43744444
4121065500,경기도,광명시,일직동,126.8828502,37.41864025
4121066000,경기도,광명시,학온동,126.8534222,37.41286111
4122000000,경기도,평택시,,127.1146556,36.98943889
4122025000,경기도,평택시,팽성읍,127.0644667,36.96237222
4122025300,경기도,평택시,안중읍,126.9338083,36.98285278
4122025600,경기도,평택시,포승읍,126.8874556,36.98004722
4122025900,경기도,평택시,청북읍,126.9361,37.03708333
4122031000,경기도,평택시,진위면,127.0929556,37.09725
4122032000,경기도,평택시,서탄면,127.0374194,37.1054
4122033000,경기도,평택시,고덕면,127.0198,37.03943611
4122034000,경기도,평택시,오성면,126.9826444,37.00483889
4122037000,경기도,평택시,현덕면,126.9236333,36.96448333
4122051000,경기도,평택시,중앙동,127.0580972,37.05251389
4122052000,경기도,평택시,서정동,127.0579222,37.06332778
4122053500,경기도,평택시,송탄동,127.0883889,37.03976667
4122055000,경기도,평택시,지산동,127.0597306,37.07484444
4122056000,경기도,평택시,송북동,127.0623667,37.07875278
4122057000,경기도,평택시,신장1동,127.0554,37.07979722
4122058000,경기도,평택시,신장2동,127.0545556,37.07358889
4122059000,경기도,평택시,신평동,127.0947528,36.98719722
4122060000,경기도,평택시,원평동,127.0826111,36.98648056
4122061000,경기도,평택시,통복동,127.0894528,36.99801389
4122062000,경기도,평택시,비전1동,127.0973194,36.99768333
4122063000,경기도,평택시,비전2동,127.1053194,36.99323333
4122063500,경기도,평택시,용이동,127.1330713,36.9977117
4122064000,경기도,평택시,세교동,127.0845333,36.99710278
4122065000,경기도,평택시,동삭동,127.1034621,37.01521511
4122066000,경기도,평택시,고덕동,127.0504134,37.04053375
4125000000,경기도,동두천시,,127.0626528,37.90091667
4125051000,경기도,동두천시,생연1동,127.0682417,37.90469167
4125052000,경기도,동두천시,생연2동,127.0511111,37.89883889
4125053500,경기도,동두천시,중앙동,127.0553083,37.90499167
4125055000,경기도,동두천시,보산동,127.0634306,37.91490833
4125056500,경기도,동두천시,불현동,127.0646639,37.89580278
4125056600,경기도,동두천시,송내동,127.0566333,37.88756111
4125058000,경기도,동두천시,소요동,127.0592083,37.92669722
4125060000,경기도,동두천시,상패동,127.0467778,37.90320833
4127100000,경기도,안산시상록구,,126.8468194,37.29851944
4127151000,경기도,안산시상록구,일동,126.8737972,37.312625
4127151500,경기도,안산시상록구,이동,126.8627667,37.30273889
4127152500,경기도,안산시상록구,사동,126.851013,37.297033
4127153200,경기도,안산시상록구,사이동,126.851873,37.289761
4127153700,경기도,안산시상록구,해양동,126.820049,37.294755
4127154000,경기도,안산시상록구,본오1동,126.8665861,37.28640833
4127155000,경기도,안산시상록구,본오2동,126.8743306,37.29345833
4127156000,경기도,안산시상록구,본오3동,126.8658417,37.29849167
4127157000,경기도,안산시상록구,부곡동,126.8631778,37.32913611
4127158000,경기도,안산시상록구,월피동,126.8587556,37.33069722
4127159000,경기도,안산시상록구,성포동,126.8515194,37.3179
4127160000,경기도,안산시상록구,반월동,126.9043306,37.30318889
4127161000,경기도,안산시상록구,안산동,126.8754222,37.3589
4127300000,경기도,안산시단원구,,126.8144194,37.31672778
4127351000,경기도,안산시단원구,와동,126.8275972,37.33861389
4127352500,경기도,안산시단원구,고잔동,126.819066,37.327149
4127353200,경기도,안산시단원구,중앙동,126.837621,37.32373
4127353500,경기도,안산시단원구,호수동,126.8266,37.30753889
4127354500,경기도,안산시단원구,원곡동,126.790768,37.333283
4127355500,경기도,안산시단원구,백운동,126.801759,37.331584
4127356500,경기도,안산시단원구,신길동,126.786115,37.330287
4127357000,경기도,안산시단원구,초지동,126.8106667,37.32197222
4127358000,경기도,안산시단원구,선부1동,126.8063889,37.33140833
4127359000,경기도,안산시단원구,선부2동,126.8047222,37.33574167
4127360000,경기도,안산시단원구,선부3동,126.8146222,37.34219167
4127361000,경기도,안산시단원구,대부동,126.5872861,37.24088056
4128100000,경기도,고양시덕양구,,126.8341972,37.63458333
4128151000,경기도,고양시덕양구,주교동,126.8317222,37.65667778
4128152000,경기도,고양시덕양구,원신동,126.8780861,37.674725
4128153000,경기도,고양시덕양구,흥도동,126.8565,37.64215278
4128154000,경기도,고양시덕양구,성사1동,126.8434861,37.65168889
4128155000,경기도,고양시덕양구,성사2동,126.8350556,37.65013889
4128156000,경기도,고양시덕양구,효자동,126.9226778,37.64902222
4128157600,경기도,고양시덕양구,삼송1동,126.8937478,37.65257274
4128157700,경기도,고양시덕양구,삼송2동,126.8701519,37.65076068
4128158000,경기도,고양시덕양구,창릉동,126.8890667,37.64278056
4128159000,경기도,고양시덕양구,고양동,126.9059444,37.70054722
4128160000,경기도,고양시덕양구,관산동,126.8646778,37.68523056
4128161000,경기도,고양시덕양구,능곡동,126.8194194,37.62230278
4128162100,경기도,고양시덕양구,화정1동,126.8356194,37.64180833
4128162200,경기도,고양시덕양구,화정2동,126.8379639,37.62774722
4128163000,경기도,고양시덕양구,행주동,126.8274556,37.61559444
4128164000,경기도,고양시덕양구,행신1동,126.8380111,37.61949167
4128165000,경기도,고양시덕양구,행신2동,126.8351222,37.61230278
4128165500,경기도,고양시덕양구,행신3동,126.8409222,37.62375278
4128165600,경기도,고양시덕양구,행신4동,126.8450311,37.61855844
4128166000,경기도,고양시덕양구,화전동,126.8747306,37.59728611
4128167000,경기도,고양시덕양구,대덕동,126.8774194,37.58266111
4128500000,경기도,고양시일산동구,,126.7770556,37.65590833
4128551000,경기도,고양시일산동구,식사동,126.8120972,37.67119167
4128552500,경기도,고양시일산동구,중산1동,126.7804336,37.69179351
4128552600,경기도,고양시일산동구,중산2동,126.7859823,37.67445991
4128553000,경기도,고양시일산동구,정발산동,126.7819528,37.66966389
4128554000,경기도,고양시일산동구,풍산동,126.802,37.66127222
4128555100,경기도,고양시일산동구,백석1동,126.794575,37.646875
4128555200,경기도,고양시일산동구,백석2동,126.7888556,37.64014167
4128556000,경기도,고양시일산동구,마두1동,126.7918639,37.65303333
4128557000,경기도,고양시일산동구,마두2동,126.7865667,37.65080278
4128558000,경기도,고양시일산동구,장항1동,126.7725639,37.63882222
4128559000,경기도,고양시일산동구,장항2동,126.7804,37.64709444
4128560000,경기도,고양시일산동구,고봉동,126.8293111,37.69910833
4128700000,경기도,고양시일산서구,,126.7527778,37.67248611
4128751000,경기도,고양시일산서구,일산1동,126.7706667,37.68435
4128752000,경기도,고양시일산서구,일산2동,126.7793528,37.68179722
4128753000,경기도,고양시일산서구,일산3동,126.7723444,37.67418611
4128754500,경기도,고양시일산동구,탄현1동,126.7684188,37.69432479
4128754600,경기도,고양시일산동구,탄현2동,126.767663,37.70217529
4128755000,경기도,고양시일산서구,주엽1동,126.7654417,37.66733056
4128756000,경기도,고양시일산서구,주엽2동,126.7624667,37.67127778
4128757000,경기도,고양시일산서구,대화동,126.7572222,37.68015278
4128758000,경기도,고양시일산서구,송포동,126.7376111,37.6687
4128760000,경기도,고양시일산동구,덕이동,126.7543053,37.69091307
4128761000,경기도,고양시일산동구,가좌동,126.7209308,37.6845027
4129000000,경기도,과천시,,126.9898,37.42637222
4129051000,경기도,과천시,중앙동,126.9948,37.43328611
4129051500,경기도,과천시,원문동,126.9891296,37.41937581
4129052000,경기도,과천시,갈현동,126.9793987,37.41470048
4129053000,경기도,과천시,별양동,126.9958889,37.42143611
4129054000,경기도,과천시,부림동,127.0006667,37.43069722
4129055000,경기도,과천시,과천동,126.9975306,37.44555833
4129056000,경기도,과천시,문원동,127.0045667,37.42729444
4131000000,경기도,구리시,,127.1318639,37.591625
4131051000,경기도,구리시,갈매동,127.118375,37.63228333
4131052000,경기도,구리시,동구동,127.1415,37.60899444
4131053000,경기도,구리시,인창동,127.1371083,37.60171389
4131054100,경기도,구리시,교문1동,127.1298861,37.598425
4131054200,경기도,구리시,교문2동,127.1363778,37.58422222
4131057000,경기도,구리시,수택1동,127.1512889,37.5937
4131058000,경기도,구리시,수택2동,127.1421556,37.59041944
4131059000,경기도,구리시,수택3동,127.1430861,37.58903056
4136000000,경기도,남양주시,,127.2186333,37.63317778
4136025000,경기도,남양주시,와부읍,127.2133083,37.58500278
4136025300,경기도,남양주시,진접읍,127.1919667,37.72361389
4136025600,경기도,남양주시,화도읍,127.3108333,37.64961944
4136025900,경기도,남양주시,진건읍,127.1815528,37.65414444
4136026200,경기도,남양주시,오남읍,127.2066667,37.696175
4136026500,경기도,남양주시,퇴계원읍,127.1467222,37.64658333
4136031000,경기도,남양주시,별내면,127.1205444,37.66140833
4136034000,경기도,남양주시,수동면,127.3282333,37.70078333
4136036000,경기도,남양주시,조안면,127.3055444,37.53306667
4136051000,경기도,남양주시,호평동,127.2511333,37.65174722
4136052000,경기도,남양주시,평내동,127.2381778,37.64569722
4136053000,경기도,남양주시,금곡동,127.2078889,37.62928333
4136054000,경기도,남양주시,양정동,127.1892778,37.61352778
4136054500,경기도,남양주시,다산1동,127.1610444,37.60443056
4136056500,경기도,남양주시,다산2동,127.1705972,37.60659722
4136057000,경기도,남양주시,별내동,127.121868,37.646161
4137000000,경기도,오산시,,127.0796417,37.14691389
4137051000,경기도,오산시,중앙동,127.0726444,37.14638333
4137052300,경기도,오산시,대원1동,127.0717587,37.13865138
4137052600,경기도,오산시,대원2동,127.0790282,37.13204198
4137053000,경기도,오산시,남촌동,127.0655306,37.15175
4137054300,경기도,오산시,신장1동,127.0545547,37.17664016
4137054600,경기도,오산시,신장2동,127.0654209,37.16976185
4137055000,경기도,오산시,세마동,127.0404639,37.18387222
4137056000,경기도,오산시,초평동,127.0427333,37.13700833
4139000000,경기도,시흥시,,126.8050778,37.37731944
4139051000,경기도,시흥시,대야동,126.7905972,37.44023611
4139052000,경기도,시흥시,신천동,126.7871306,37.43557778
4139053100,경기도,시흥시,신현동,126.7867222,37.40335278
4139054000,경기도,시흥시,은행동,126.8000778,37.43350278
4139055000,경기도,시흥시,매화동,126.8176778,37.41485556
4139057000,경기도,시흥시,목감동,126.8594194,37.38172222
4139058100,경기도,시흥시,군자동,126.7871556,37.33709722
4139058200,경기도,시흥시,월곶동,126.7397944,37.38858333
4139058900,경기도,시흥시,정왕본동,126.7502444,37.3425
4139059100,경기도,시흥시,정왕1동,126.7459778,37.33718333
4139059200,경기도,시흥시,정왕2동,126.7309222,37.34818611
4139059300,경기도,시흥시,정왕3동,126.7283889,37.354925
4139059400,경기도,시흥시,정왕4동,126.7344528,37.36275556
4139059600,경기도,시흥시,배곧1동,126.7357,37.3717
4139059700,경기도,시흥시,배곧2동,126.73089,37.368358
4139062100,경기도,시흥시,과림동,126.8349556,37.43400556
4139063000,경기도,시흥시,연성동,126.8055556,37.378825
4139063100,경기도,시흥시,장곡동,126.7833389,37.37956389
4139064000,경기도,시흥시,능곡동,126.8158456,37.36631832
4139065000,경기도,시흥시,거북섬동,126.6836646,37.32106376
4141000000,경기도,군포시,,126.9375,37.35865833
4141051000,경기도,군포시,군포1동,126.9475778,37.35081111
4141052000,경기도,군포시,군포2동,126.9451528,37.34360556
4141054000,경기도,군포시,산본1동,126.9406194,37.37053333
4141055000,경기도,군포시,산본2동,126.9348111,37.36719722
4141056000,경기도,군포시,금정동,126.9413778,37.36255556
4141057000,경기도,군포시,재궁동,126.941175,37.35569722
4141058000,경기도,군포시,오금동,126.9316417,37.34821389
4141059000,경기도,군포시,수리동,126.9231333,37.35321389
4141060000,경기도,군포시,궁내동,126.9238972,37.35680833
4141061000,경기도,군포시,대야동,126.9174556,37.32744167
4141062000,경기도,군포시,광정동,126.9300306,37.35923889
4141063000,경기도,군포시,송부동,126.9238,37.3162
4143000000,경기도,의왕시,,126.9703889,37.34195
4143051000,경기도,의왕시,고천동,126.977975,37.34506944
4143052000,경기도,의왕시,부곡동,126.9589111,37.31588056
4143053000,경기도,의왕시,오전동,126.9736417,37.35069444
4143054000,경기도,의왕시,내손1동,126.9773333,37.38392778
4143055000,경기도,의왕시,내손2동,126.9831111,37.38394444
4143056000,경기도,의왕시,청계동,126.9980556,37.38575833
4145000000,경기도,하남시,,127.217,37.53649722
4145051000,경기도,하남시,천현동,127.2261889,37.51645278
4145052000,경기도,하남시,신장1동,127.2117222,37.53595
4145053000,경기도,하남시,신장2동,127.2161333,37.53891667
4145054000,경기도,하남시,덕풍1동,127.2026972,37.53072222
4145055000,경기도,하남시,덕풍2동,127.2002528,37.539475
4145056000,경기도,하남시,덕풍3동,127.2088639,37.54104444
4145058000,경기도,하남시,감북동,127.1638778,37.51343056
4145058200,경기도,하남시,감일동,127.1583293,37.5091585
4145058500,경기도,하남시,위례동,127.152502,37.4771641
4145059000,경기도,하남시,춘궁동,127.1962,37.51940556
4145060000,경기도,하남시,초이동,127.1729083,37.53371944
4145061000,경기도,하남시,미사1동,127.1960667,37.56635556
4145062000,경기도,하남시,미사2동,127.1859139,37.56704444
4145063000,경기도,하남시,미사3동,127.1850649,37.54901931
4146100000,경기도,용인시처인구,,127.2038444,37.23147778
4146125000,경기도,용인시처인구,포곡읍,127.2329417,37.27506111
4146125300,경기도,용인시처인구,모현읍,127.2445972,37.32665
4146125600,경기도,용인시처인구,이동읍,127.1983,37.13819722
4146125900,경기도,용인시처인구,남사읍,127.1526972,37.11288611
4146134000,경기도,용인시처인구,원삼면,127.3151222,37.16351944
4146135000,경기도,용인시처인구,백암면,127.3775556,37.16051389
4146136000,경기도,용인시처인구,양지면,127.2819528,37.23266111
4146151000,경기도,용인시처인구,중앙동,127.2074417,37.23125556
4146152500,경기도,용인시처인구,역북동,127.1881419,37.23455799
4146152600,경기도,용인시처인구,삼가동,127.1658531,37.24943826
4146153000,경기도,용인시처인구,유림동,127.2138222,37.24964722
4146154000,경기도,용인시처인구,동부동,127.2214667,37.23002778
4146300000,경기도,용인시기흥구,,127.1167889,37.27759722
4146351000,경기도,용인시기흥구,신갈동,127.1090194,37.26972222
4146351600,경기도,용인시기흥구,영덕1동,127.0737819,37.2775564
4146351700,경기도,용인시기흥구,영덕2동,127.0896298,37.2665445
4146352000,경기도,용인시기흥구,구갈동,127.1294333,37.26998333
4146353000,경기도,용인시기흥구,상갈동,127.1073861,37.25893611
4146353500,경기도,용인시기흥구,보라동,127.1061208,37.2539456
4146354000,경기도,용인시기흥구,기흥동,127.1049417,37.24028889
4146355000,경기도,용인시기흥구,서농동,127.0757,37.24400556
4146356000,경기도,용인시기흥구,구성동,127.1211194,37.29397778
4146357000,경기도,용인시기흥구,마북동,127.1255556,37.30113056
4146357200,경기도,용인시기흥구,동백1동,127.1283587,37.2770728
4146357500,경기도,용인시기흥구,동백2동,127.1283587,37.2771385
4146357700,경기도,용인시기흥구,동백3동,127.1473857,37.2811604
4146358600,경기도,용인시기흥구,상하동,127.1431111,37.271575
4146359000,경기도,용인시기흥구,보정동,127.1165111,37.31673889
4146500000,경기도,용인시수지구,,127.1000972,37.31938611
4146551000,경기도,용인시수지구,풍덕천1동,127.0971556,37.32512222
4146552000,경기도,용인시수지구,풍덕천2동,127.0908972,37.31658056
4146553000,경기도,용인시수지구,신봉동,127.0754639,37.32238056
4146554000,경기도,용인시수지구,죽전1동,127.1159222,37.32819444
4146555000,경기도,용인시수지구,죽전2동,127.1116222,37.33204167
4146555500,경기도,용인시수지구,죽전3동,127.1141824,37.32798877
4146556000,경기도,용인시수지구,동천동,127.1011528,37.33887222
4146557000,경기도,용인시수지구,상현1동,127.0833083,37.30183333
4146558000,경기도,용인시수지구,상현2동,127.0880861,37.30663333
4146558500,경기도,용인시수지구,상현3동,127.0727178,37.2996074
4146559000,경기도,용인시수지구,성복동,127.0832333,37.31033056
4148000000,경기도,파주시,,126.7819528,37.75708333
4148025000,경기도,파주시,문산읍,126.7862,37.85022778
4148025300,경기도,파주시,파주읍,126.8186194,37.83023611
4148025600,경기도,파주시,법원읍,126.884575,37.84636389
4148026200,경기도,파주시,조리읍,126.8070667,37.74204444
4148031000,경기도,파주시,월롱면,126.7923528,37.79326667
4148032000,경기도,파주시,탄현면,126.7182889,37.79971667
4148035000,경기도,파주시,광탄면,126.8533083,37.77323333
4148036000,경기도,파주시,파평면,126.8401306,37.91925
4148037000,경기도,파주시,적성면,126.9198528,37.95171389
4148039000,경기도,파주시,장단면,126.7107528,37.87158333
4148051000,경기도,파주시,금촌1동,126.7781861,37.76351667
4148052000,경기도,파주시,금촌2동,126.779475,37.74883889
4148053000,경기도,파주시,금촌3동,126.778369,37.77145077
4148054000,경기도,파주시,교하동,126.7469108,37.7530243
4148055000,경기도,파주시,운정1동,126.7512624,37.72418055
4148056000,경기도,파주시,운정2동,126.7515577,37.723969
4148057000,경기도,파주시,운정3동,126.7512633,37.7241871
4148058000,경기도,파주시,운정4동,126.768705,37.71899848
4148059000,경기도,파주시,운정5동,126.7107984,37.72026941
4148060000,경기도,파주시,운정6동,126.7204368,37.71264568
4150000000,경기도,이천시,,127.4432194,37.27543611
4150025000,경기도,이천시,장호원읍,127.6189528,37.11205833
4150025300,경기도,이천시,부발읍,127.4888889,37.28083333
4150031000,경기도,이천시,신둔면,127.406175,37.30345833
4150032000,경기도,이천시,백사면,127.4929083,37.33619167
4150033000,경기도,이천시,호법면,127.4270222,37.22032222
4150034000,경기도,이천시,마장면,127.3602333,37.24611111
4150035000,경기도,이천시,대월면,127.4945,37.22704167
4150036000,경기도,이천시,모가면,127.4822861,37.16885833
4150037000,경기도,이천시,설성면,127.5240111,37.12966389
4150038000,경기도,이천시,율면,127.5485444,37.09142778
4150051000,경기도,이천시,창전동,127.4432417,37.28006389
4150051500,경기도,이천시,증포동,127.4547528,37.28753889
4150052000,경기도,이천시,중리동,127.4441,37.27538611
4150053000,경기도,이천시,관고동,127.4427333,37.27979722
4155000000,경기도,안성시,,127.2818444,37.005175
4155025000,경기도,안성시,공도읍,127.1738889,36.99587222
4155031000,경기도,안성시,보개면,127.2930861,37.02025556
4155032000,경기도,안성시,금광면,127.3197528,36.99429167
4155033000,경기도,안성시,서운면,127.2613889,36.9402
4155034000,경기도,안성시,미양면,127.2174083,36.97241667
4155035000,경기도,안성시,대덕면,127.239975,37.00955278
4155036000,경기도,안성시,양성면,127.196675,37.056975
4155038000,경기도,안성시,원곡면,127.1316417,37.03688056
4155039000,경기도,안성시,일죽면,127.4792639,37.08765833
4155040000,경기도,안성시,죽산면,127.4245083,37.07570556
4155041000,경기도,안성시,삼죽면,127.3769528,37.07016944
4155042000,경기도,안성시,고삼면,127.2654639,37.07987222
4155051000,경기도,안성시,안성1동,127.2763972,37.00282222
4155052000,경기도,안성시,안성2동,127.2721972,36.99773889
4155053000,경기도,안성시,안성3동,127.259875,37.01130556
4157000000,경기도,김포시,,126.7177778,37.61245833
4157025000,경기도,김포시,통진읍,126.5993778,37.68895
4157025300,경기도,김포시,고촌읍,126.772777,37.603868
4157025600,경기도,김포시,양촌읍,126.625369,37.657464
4157034000,경기도,김포시,대곶면,126.5839306,37.64636667
4157035000,경기도,김포시,월곶면,126.5546778,37.71426389
4157036000,경기도,김포시,하성면,126.6333417,37.71737222
4157051500,경기도,김포시,김포본동,126.7077444,37.62463889
4157052500,경기도,김포시,장기본동,126.6739444,37.64964722
4157054000,경기도,김포시,사우동,126.7191333,37.61653889
4157055000,경기도,김포시,풍무동,126.7259111,37.602025
4157056000,경기도,김포시,장기동,126.6713378,37.63973003
4157057000,경기도,김포시,구래동,126.6237155,37.64646146
4157057500,경기도,김포시,마산동,126.643823,37.641265
4157058000,경기도,김포시,운양동,126.6837083,37.65166111
4159000000,경기도,화성시,,126.8335306,37.19681667
4159025300,경기도,화성시,봉담읍,126.9523333,37.21733889
4159025600,경기도,화성시,우정읍,126.8173667,37.08697222
4159025900,경기도,화성시,향남읍,126.9224417,37.12954167
4159026200,경기도,화성시,남양읍,126.8238333,37.21184722
4159031000,경기도,화성시,매송면,126.911275,37.24944722
4159032000,경기도,화성시,비봉면,126.8758222,37.23236667
4159033000,경기도,화성시,마도면,126.7718444,37.20291111
4159034000,경기도,화성시,송산면,126.741275,37.21510556
4159035000,경기도,화성시,서신면,126.7108333,37.16365556
4159036000,경기도,화성시,팔탄면,126.9054972,37.15837778
4159037000,경기도,화성시,장안면,126.8333972,37.07700833
4159040000,경기도,화성시,양감면,126.9465528,37.07846389
4159041000,경기도,화성시,정남면,126.9850306,37.16559444
4159051500,경기도,화성시,새솔동,126.812249,37.28998
4159052000,경기도,화성시,진안동,127.0412222,37.21021944
4159053000,경기도,화성시,병점1동,127.0387556,37.20358889
4159054000,경기도,화성시,병점2동,127.0451778,37.20873611
4159055000,경기도,화성시,반월동,127.0636111,37.23180833
4159056000,경기도,화성시,기배동,126.9863083,37.22118333
4159057000,경기도,화성시,화산동,127.0164444,37.20259722
4159058500,경기도,화성시,동탄1동,127.0739306,37.20369167
4159058600,경기도,화성시,동탄2동,127.0741972,37.19420278
4159058700,경기도,화성시,동탄3동,127.05871,37.2099706
4159058800,경기도,화성시,동탄4동,127.105225,37.21013611
4159059000,경기도,화성시,동탄5동,127.111575,37.206282
4159060000,경기도,화성시,동탄6동,127.0885194,37.18478611
4159061000,경기도,화성시,동탄7동,127.110505,37.171099
4159062000,경기도,화성시,동탄8동,127.0989459,37.1634383
4159063000,경기도,화성시,동탄9동,127.1383942,37.1806626
4161000000,경기도,광주시,,127.2577861,37.41450556
4161025300,경기도,광주시,초월읍,127.2908333,37.38274722
4161025900,경기도,광주시,곤지암읍,127.3462,37.345925
4161033000,경기도,광주시,도척면,127.3333333,37.30173611
4161034000,경기도,광주시,퇴촌면,127.3091417,37.463875
4161035000,경기도,광주시,남종면,127.304,37.49153333
4161037000,경기도,광주시,남한산성면,127.2470222,37.46049722
4161051000,경기도,광주시,경안동,127.2594667,37.40811944
4161052000,경기도,광주시,송정동,127.2559243,37.4258902
4161054000,경기도,광주시,쌍령동,127.2691201,37.3997633
4161055000,경기도,광주시,탄벌동,127.2438873,37.4196761
4161056000,경기도,광주시,광남1동,127.227479,37.3919532
4161057000,경기도,광주시,광남2동,127.2276224,37.3889777
4161058000,경기도,광주시,오포1동,127.2285933,37.36615276
4161059000,경기도,광주시,오포2동,127.2546418,37.37772275
4161060000,경기도,광주시,신현동,127.1588428,37.35963995
4161061000,경기도,광주시,능평동,127.1672754,37.34971252
4163000000,경기도,양주시,,127.0478194,37.78245
4163025000,경기도,양주시,백석읍,126.9877528,37.79225278
4163031000,경기도,양주시,은현면,127.0266417,37.872225
4163032000,경기도,양주시,남면,126.9788444,37.89539444
4163033000,경기도,양주시,광적면,126.9858333,37.82196389
4163034000,경기도,양주시,장흥면,126.9432667,37.71509722
4163051000,경기도,양주시,양주1동,127.0461528,37.77064444
4163052000,경기도,양주시,양주2동,127.0988889,37.80349444
4163053000,경기도,양주시,회천1동,127.0682417,37.84136389
4163054000,경기도,양주시,회천2동,127.0499,37.819675
4163055000,경기도,양주시,회천3동,127.0709111,37.8349
4163057000,경기도,양주시,옥정1동,127.0901208,37.83721936
4163058000,경기도,양주시,옥정2동,127.0943238,37.82135475
4165000000,경기도,포천시,,127.2024194,37.89215556
4165025000,경기도,포천시,소흘읍,127.1407083,37.82065556
4165031000,경기도,포천시,군내면,127.2195972,37.88623611
4165032000,경기도,포천시,내촌면,127.2307,37.78345
4165033000,경기도,포천시,가산면,127.1884306,37.84576667
4165034000,경기도,포천시,신북면,127.2286333,37.93115
4165035000,경기도,포천시,창수면,127.1912222,37.98897778
4165036000,경기도,포천시,영중면,127.2456778,37.999775
4165037000,경기도,포천시,일동면,127.3193444,37.95856944
4165038000,경기도,포천시,이동면,127.3693444,38.02793611
4165039000,경기도,포천시,영북면,127.2776639,38.08635833
4165040000,경기도,포천시,관인면,127.2532528,38.15497778
4165041000,경기도,포천시,화현면,127.2901778,37.89836111
4165051000,경기도,포천시,포천동,127.2022444,37.89535833
4165052000,경기도,포천시,선단동,127.1613306,37.85140833
4167000000,경기도,여주시,,127.6396222,37.29535833
4167025000,경기도,여주시,가남읍,127.5472444,37.19892778
4167031000,경기도,여주시,점동면,127.6647306,37.20321389
4167032000,경기도,여주시,흥천면,127.5437083,37.33021389
4167033000,경기도,여주시,금사면,127.5354306,37.38983056
4167034500,경기도,여주시,세종대왕면,127.5734882,37.30017976
4167035000,경기도,여주시,대신면,127.588675,37.37228611
4167036000,경기도,여주시,북내면,127.6811417,37.32650556
4167037000,경기도,여주시,강천면,127.7136667,37.27006944
4167038000,경기도,여주시,산북면,127.4451111,37.39872778
4167051000,경기도,여주시,여흥동,127.6420222,37.2921527
4167052000,경기도,여주시,중앙동,127.628975,37.29868056
4167053000,경기도,여주시,오학동,127.6443111,37.30989444
4180000000,경기도,연천군,,127.0770667,38.09336389
4180025000,경기도,연천군,연천읍,127.0779972,38.10146944
4180025300,경기도,연천군,전곡읍,127.0654306,38.02531667
4180031000,경기도,연천군,군남면,127.0211111,38.08255556
4180032000,경기도,연천군,청산면,127.0698,37.97913611
4180033000,경기도,연천군,백학면,126.9194,38.02759167
4180034000,경기도,연천군,미산면,126.9949417,38.04488333
4180035000,경기도,연천군,왕징면,127.0149333,38.05607778
4180036000,경기도,연천군,신서면,127.1090667,38.18015833
4180037000,경기도,연천군,중면,127.0213306,38.13316389
4180038000,경기도,연천군,장남면,126.8863556,37.97904167
4182000000,경기도,가평군,,127.5117778,37.82883056
4182025000,경기도,가평군,가평읍,127.5186889,37.82261667
4182031000,경기도,가평군,설악면,127.4968194,37.67345
4182032500,경기도,가평군,청평면,127.4263444,37.73768333
4182033000,경기도,가평군,상면,127.3588639,37.80192222
4182034500,경기도,가평군,조종면,127.3554,37.81481944
4182035000,경기도,가평군,북면,127.5524,37.88289444
4183000000,경기도,양평군,,127.4898861,37.48893611
4183025000,경기도,양평군,양평읍,127.4960667,37.48401111
4183031000,경기도,양평군,강상면,127.4876444,37.47439444
4183032000,경기도,양평군,강하면,127.4127861,37.49215556
4183033000,경기도,양평군,양서면,127.3281528,37.54114722
4183034000,경기도,양평군,옥천면,127.4582667,37.51548889
4183035000,경기도,양평군,서종면,127.3508083,37.60378611
4183036000,경기도,양평군,단월면,127.6750972,37.53574167
4183037000,경기도,양평군,청운면,127.7129222,37.55348333
4183038000,경기도,양평군,양동면,127.757,37.41628889
4183039500,경기도,양평군,지평면,127.6414444,37.47166667
4183040000,경기도,양평군,용문면,127.5978889,37.48390833
4183041000,경기도,양평군,개군면,127.5389528,37.42316389
4300000000,충청북도,,,127.4935861,36.6325
4311100000,충청북도,청주시상당구,,127.5117306,36.58399722
4311131000,충청북도,청주시상당구,낭성면,127.6061889,36.61967222
4311132000,충청북도,청주시상당구,미원면,127.6605556,36.63325
4311133000,충청북도,청주시상당구,가덕면,127.5510111,36.55072222
4311134000,충청북도,청주시상당구,남일면,127.5117306,36.58399722
4311135000,충청북도,청주시상당구,문의면,127.4983556,36.51483611
4311152500,충청북도,청주시상당구,중앙동,127.4903194,36.63692222
4311154500,충청북도,청주시상당구,성안동,127.4935306,36.62956944
4311162000,충청북도,청주시상당구,탑대성동,127.4989667,36.63028056
4311167000,충청북도,청주시상당구,영운동,127.5009972,36.61514167
4311168000,충청북도,청주시상당구,금천동,127.5014444,36.62160833
4311169000,충청북도,청주시상당구,용담.명암.산성동,127.5057194,36.632225
4311172000,충청북도,청주시상당구,용암1동,127.5034111,36.60588889
4311173000,충청북도,청주시상당구,용암2동,127.5101639,36.60414167
4311200000,충청북도,청주시서원구,,127.4832889,36.63726111
4311231000,충청북도,청주시서원구,남이면,127.4358417,36.55750556
4311232000,충청북도,청주시서원구,현도면,127.4262417,36.48361389
4311251000,충청북도,청주시서원구,사직1동,127.4832889,36.63726111
4311252000,충청북도,청주시서원구,사직2동,127.4758417,36.62876944
4311253000,충청북도,청주시서원구,사창동,127.4609444,36.63067222
4311254000,충청북도,청주시서원구,모충동,127.4789778,36.62480556
4311255000,충청북도,청주시서원구,산남동,127.4806861,36.60727778
4311256000,충청북도,청주시서원구,분평동,127.4906861,36.605825
4311257000,충청북도,청주시서원구,수곡1동,127.4821083,36.615375
4311258000,충청북도,청주시서원구,수곡2동,127.4741972,36.61442778
4311259000,충청북도,청주시서원구,성화.개신.죽림동,127.4500889,36.61416667
4311300000,충청북도,청주시흥덕구,,127.3594194,36.6182
4311325000,충청북도,청주시흥덕구,오송읍,127.3267222,36.60631389
4311331000,충청북도,청주시흥덕구,강내면,127.3594194,36.6182
4311332000,충청북도,청주시흥덕구,옥산면,127.3777528,36.66168611
4311370000,충청북도,청주시흥덕구,운천.신봉동,127.4787972,36.64501944
4311374100,충청북도,청주시흥덕구,복대1동,127.4347306,36.63260556
4311374200,충청북도,청주시흥덕구,복대2동,127.4459556,36.62329167
4311374700,충청북도,청주시흥덕구,가경동,127.4350972,36.62593889
4311375100,충청북도,청주시흥덕구,봉명1동,127.4615667,36.63741667
4311375600,충청북도,청주시흥덕구,봉명2.송정동,127.4599556,36.64178333
4311376000,충청북도,청주시흥덕구,강서제1동,127.4278333,36.62377778
4311377000,충청북도,청주시흥덕구,강서제2동,127.4304222,36.65852778
4311400000,충청북도,청주시청원구,,127.4876639,36.64430556
4311425000,충청북도,청주시청원구,내수읍,127.5377778,36.72089444
4311425300,충청북도,청주시청원구,오창읍,127.4566889,36.73943056
4311431000,충청북도,청주시청원구,북이면,127.5444,36.73658333
4311451000,충청북도,청주시청원구,우암동,127.4876639,36.64430556
4311452000,충청북도,청주시청원구,내덕1동,127.4848528,36.65536944
4311453000,충청북도,청주시청원구,내덕2동,127.4942889,36.65449167
4311454000,충청북도,청주시청원구,율량.사천동,127.4925306,36.66370833
4311455000,충청북도,청주시청원구,오근장동,127.4833083,36.69129722
4313000000,충청북도,충주시,,127.9281444,36.98818056
4313025000,충청북도,충주시,주덕읍,127.7977333,36.97276944
4313031000,충청북도,충주시,살미면,127.9666,36.9024
4313032500,충청북도,충주시,수안보면,127.997,36.84435278
4313033500,충청북도,충주시,대소원면,127.8201222,36.97493333
4313035000,충청북도,충주시,신니면,127.7387,36.99290278
4313036000,충청북도,충주시,노은면,127.7563444,37.04527222
4313037000,충청북도,충주시,앙성면,127.7550222,37.10476944
4313038500,충청북도,충주시,중앙탑면,127.8591889,37.02611667
4313039000,충청북도,충주시,금가면,127.9266333,37.04017778
4313040000,충청북도,충주시,동량면,127.9653333,37.02338056
4313041000,충청북도,충주시,산척면,127.9603194,37.073675
4313042000,충청북도,충주시,엄정면,127.9172639,37.08365833
4313043000,충청북도,충주시,소태면,127.849975,37.10693889
4313051500,충청북도,충주시,성내.충인동,127.9362222,36.97050833
4313053500,충청북도,충주시,교현.안림동,127.9374667,36.97193889
4313054000,충청북도,충주시,교현2동,127.9312972,36.97858056
4313055000,충청북도,충주시,용산동,127.9409639,36.96130278
4313056000,충청북도,충주시,지현동,127.9348111,36.96536667
4313057100,충청북도,충주시,문화동,127.9276222,36.96888889
4313058000,충청북도,충주시,호암.직동,127.940875,36.95310833
4313060500,충청북도,충주시,달천동,127.9032889,36.94477778
4313061000,충청북도,충주시,봉방동,127.9184556,36.97151111
4313062500,충청북도,충주시,칠금.금릉동,127.9212333,36.97914444
4313063000,충청북도,충주시,연수동,127.936175,36.98344167
4313064000,충청북도,충주시,목행.용탄동,127.9191889,37.0087
4315000000,충청북도,제천시,,128.1931528,37.12976944
4315025000,충청북도,제천시,봉양읍,128.1238778,37.12980278
4315031000,충청북도,제천시,금성면,128.1708222,37.05871944
4315032000,충청북도,제천시,청풍면,128.170375,36.99761667
4315033000,충청북도,제천시,수산면,128.1832333,36.93093889
4315034000,충청북도,제천시,덕산면,128.1666,36.90915278
4315035000,충청북도,제천시,한수면,128.0839778,36.88223333
4315036000,충청북도,제천시,백운면,128.0280222,37.13496667
4315038000,충청북도,제천시,송학면,128.2632083,37.18209444
4315051000,충청북도,제천시,교동,128.2176861,37.13908333
4315051800,충청북도,제천시,의림지동,128.2151167,37.16210172
4315052800,충청북도,제천시,중앙동,128.2102254,37.13934885
4315053700,충청북도,제천시,남현동,128.2170332,37.13479744
4315054700,충청북도,제천시,영서동,128.2017991,37.13283217
4315056000,충청북도,제천시,용두동,128.2027444,37.13906667
4315057700,충청북도,제천시,신백동,128.2232542,37.12838305
4315059000,충청북도,제천시,청전동,128.2166083,37.14615
4315060500,충청북도,제천시,화산동,128.2133556,37.12787778
4372000000,충청북도,보은군,,127.7316083,36.48653333
4372025000,충청북도,보은군,보은읍,127.7190528,36.48055833
4372031500,충청북도,보은군,속리산면,127.8124889,36.50921111
4372032500,충청북도,보은군,장안면,127.7908972,36.46678889
4372033000,충청북도,보은군,마로면,127.8226444,36.43283333
4372034000,충청북도,보은군,탄부면,127.7981111,36.42774722
4372035000,충청북도,보은군,삼승면,127.7298111,36.39283056
4372036000,충청북도,보은군,수한면,127.7009111,36.47643611
4372037000,충청북도,보은군,회남면,127.5813083,36.44244167
4372038500,충청북도,보은군,회인면,127.5986667,36.49193889
4372039000,충청북도,보은군,내북면,127.6662222,36.57499444
4372040000,충청북도,보은군,산외면,127.7347639,36.54906389
4373000000,충청북도,옥천군,,127.5736333,36.30355
4373025000,충청북도,옥천군,옥천읍,127.5770889,36.30443333
4373031000,충청북도,옥천군,동이면,127.6225222,36.28086944
4373032000,충청북도,옥천군,안남면,127.6749667,36.35328611
4373033000,충청북도,옥천군,안내면,127.664075,36.39153333
4373034000,충청북도,옥천군,청성면,127.7619861,36.32473611
4373035000,충청북도,옥천군,청산면,127.7940861,36.34346389
4373036000,충청북도,옥천군,이원면,127.6216222,36.24327222
4373037000,충청북도,옥천군,군서면,127.529575,36.27671944
4373038000,충청북도,옥천군,군북면,127.5366222,36.32718056
4374000000,충청북도,영동군,,127.7856111,36.17205833
4374025000,충청북도,영동군,영동읍,127.7781194,36.16830833
4374031000,충청북도,영동군,용산면,127.8316556,36.25676667
4374032000,충청북도,영동군,황간면,127.9126861,36.22543889
4374033500,충청북도,영동군,추풍령면,128.000875,36.21163333
4374034000,충청북도,영동군,매곡면,127.9343306,36.18792222
4374035000,충청북도,영동군,상촌면,127.9163972,36.14588611
4374036000,충청북도,영동군,양강면,127.7531111,36.14947222
4374037000,충청북도,영동군,용화면,127.7692972,36.01783056
4374038000,충청북도,영동군,학산면,127.6870667,36.09643611
4374039000,충청북도,영동군,양산면,127.6712222,36.11929722
4374040000,충청북도,영동군,심천면,127.7234639,36.2352
4374500000,충청북도,증평군,,127.5832889,36.78218056
4374525000,충청북도,증평군,증평읍,127.5837083,36.78255556
4374531000,충청북도,증평군,도안면,127.6150639,36.81044722
4375000000,충청북도,진천군,,127.4376444,36.85253889
4375025000,충청북도,진천군,진천읍,127.4434111,36.85201667
